stop_id,stop_code,stop_name,stop_desc,stop_lat,stop_lon,agency_id,jurisdiction_id,location_type,parent_station,relative_position,cardinal_direction,wheelchair_boarding,primary_street,address_range,cross_location
141,0141,W Washington & S Fairchild (EB),This EVENT/DETOUR ONLY stop (#0141) is eastbound on the 201 block of W Washington Ave nearside of Fairchild St (S),43.073074,-89.386255,MMT,CMAD,0,,3,90,1,W Washington,201,S Fairchild
1110,1110,E Dayton & Wisconsin (WB),This EVENT/DETOUR ONLY stop (#1110) is westbound on the 2 block of Dayton St (E) nearside of Wisconsin Ave,43.076428,-89.385920,MMT,CMAD,0,,3,270,1,E Dayton,2,Wisconsin
1140,1140,E Washington & N Webster (WB),This EVENT/DETOUR ONLY stop (#1140) is westbound on the 200 block of E Washington Ave nearside of Webster St (N),43.076390,-89.381930,MMT,CMAD,0,,3,270,1,E Washington,200,N Webster
1155,1155,S Webster & E Main (NB),This EVENT/DETOUR ONLY stop (#1155) is northbound on the 99 block of Webster St (S) farside of Main St (E),43.075579,-89.381192,MMT,CMAD,0,,1,0,1,S Webster,99,E Main
4000,SoTP,South Transfer Point,The South Transfer Point station is located at 2430 Park St (S) - just north of Badger Rd (W),43.038957,-89.394651,MMT,MTSM,1,,5,,1,South Transfer Point,2430,S Park
4100,4100,South Transfer Point,This stop (#4100) is on the pedestrian island at the South Transfer Point station,43.038895,-89.394824,MMT,MTSM,0,4000,5,,1,South Transfer Point,2430,S Park
5,0005,W Dayton & N Orchard (EB),This stop (#0005) is eastbound on the 1299 block of Dayton St (W) farside Orchard St (N),43.070947,-89.406982,MMT,CMAD,0,,1,90,1,W Dayton,1299,N Orchard
10,0010,Langdon & N Park (WB),This stop (#0010) is westbound on the 898 block of Langdon St nearside Park St (N),43.075933,-89.400154,MMT,CMAD,0,,3,270,1,Langdon,898,N Park
25,0025,Langdon & N Lake (EB),This stop (#0025) is eastbound on the 699 block of Langdon St farside Lake St (N),43.075691,-89.396944,MMT,CMAD,0,,1,90,1,Langdon,699,N Lake
39,0039,N Lake & W Johnson (NB),This stop (#0039) is northbound on the 299 block of Lake St (N) nearside Johnson St (W),43.071895,-89.397341,MMT,CMAD,0,,3,0,1,N Lake,299,W Johnson
45,0045,Langdon & Wisconsin (EB),This stop (#0045) is eastbound on the 1 block of Langdon St nearside Wisconsin Ave,43.078482,-89.38982,MMT,CMAD,0,,3,90,1,Langdon,1,Wisconsin
49,0049,N Lake & Langdon (NB),This stop (#0049) is northbound on the 599 block of Lake St (N) nearside Langdon St,43.075529,-89.397191,MMT,CMAD,0,,3,0,1,N Lake,599,Langdon
52,0052,Observatory & N Charter (WB),This stop (#0052) is westbound on the 1198 block of Observatory Dr nearside Charter St (N),43.076131,-89.40566,MMT,UWIS,0,,3,270,1,Observatory,1198,N Charter
56,0056,Observatory & Liz Waters (WB),This stop (#0056) is westbound on the 1300 block of Observatory Dr adjacent Elizabeth Waters Hall,43.07665,-89.407141,MMT,UWIS,0,,2,270,1,Observatory,1300,Liz Waters
60,0060,Observatory & Bascom (WB),This stop (#0060) is westbound on the 1100 block of Observatory Dr adjacent Bascom Hall,43.075996,-89.40366,MMT,UWIS,0,,2,270,1,Observatory,1100,Bascom
61,0061,W Dayton & N Mills (EB),This stop (#0061) is eastbound on the 1099 block of Dayton St (W) farside Mills St (N),43.070893,-89.403698,MMT,CMAD,0,,1,90,1,W Dayton,1099,N Mills
68,0068,N Lake & W Johnson (SB),This stop (#0068) is southbound on the 300 block of Lake St (N) nearside Johnson St (W),43.072172,-89.397625,MMT,CMAD,0,,3,180,1,N Lake,300,W Johnson
75,0075,W Dayton & N Park (EB),This stop (#0075) is eastbound on the 899 block of Dayton St (W) farside Park St (N),43.070839,-89.40002,MMT,CMAD,0,,1,90,1,W Dayton,899,N Park
87,0087,N Broom & W Gorham (NB),This stop (#0087) is northbound on the 399 block of Broom St (N) nearside Gorham St (W),43.07415,-89.392328,MMT,CMAD,0,,3,0,1,N Broom,399,W Gorham
89,0089,Langdon & N Henry (EB),This stop (#0089) is eastbound on the 199 block of Langdon St farside Henry St (N),43.076844,-89.392142,MMT,CMAD,0,,1,90,1,Langdon,199,N Henry
96,0096,Wisconsin & W Gorham (SB),This stop (#0096) is southbound on the 400 block of Wisconsin Ave nearside Gorham St (W),43.077515,-89.388055,MMT,CMAD,0,,3,180,1,Wisconsin,400,W Gorham
99,0099,Langdon & N Park (EB),This stop (#0099) is eastbound on the 899 block of Langdon St farside Park St (N),43.075745,-89.400179,MMT,CMAD,0,,1,90,1,Langdon,899,N Park
100,0100,University & N Park (WB),This stop (#0100) is westbound on the 900 block of University Ave farside Park St (N),43.073399,-89.401365,MMT,CMAD,0,,1,270,1,University,900,N Park
107,0107,S Park & W Olin (NB),This stop (#0107) is northbound on the 1117 block of Park St (S) farside Olin Ave (W),43.054383,-89.396533,MMT,CMAD,0,,1,0,1,S Park,1117,W Olin
115,0115,N Park & Regent (NB),This stop (#0115) is northbound on the 21 block of Park St (N) farside Regent St,43.067983,-89.400724,MMT,CMAD,0,,1,0,1,N Park,21,Regent
121,0121,W Badger & Fiedler (EB),This stop (#0121) is eastbound on the 1099 block of Badger Rd (W) farside Fiedler Ln,43.038466,-89.401117,MMT,CMAD,0,,1,90,1,W Badger,1099,Fiedler
124,0124,S Park & Wingra (SB),This stop (#0124) is southbound on the 1700 block of Park St (S) farside Wingra Dr (W),43.048957,-89.394289,MMT,CMAD,0,,1,180,1,S Park,1700,Wingra
133,0133,University & N Breese (EB),This stop (#0133) is eastbound on the 1599 block of University Ave farside Breese Ter (N),43.073275,-89.413154,MMT,CMAD,0,,1,90,1,University,1599,N Breese
139,0139,N Randall & Regent (NB),This stop (#0139) is northbound on the 1 block of Randall Ave (N) farside Regent St,43.068038,-89.408834,MMT,CMAD,0,,1,0,1,N Randall,1,Regent
144,0144,W Badger & Colonial Heights (WB),This stop (#0144) is westbound on the 640 block of Badger Rd (W) adjacent Colonial Heights,43.038545,-89.390641,MMT,CMAD,0,,2,270,1,W Badger,640,Colonial Heights
145,0145,W Johnson & State (EB),This stop (#0145) is eastbound on the 199 block of Johnson St (W) farside State St,43.07491,-89.389575,MMT,CMAD,0,,1,90,1,W Johnson,199,State
146,0146,Fish Hatchery & Midland (SB),This stop (#0146) is southbound on the 1200 block of Fish Hatchery Rd farside Midland St,43.053981,-89.399186,MMT,CMAD,0,,1,180,1,Fish Hatchery,1200,Midland
147,0147,W Olin & Hickory (EB),This stop (#0147) is eastbound on the 599 block of Olin Ave (W) farside Hickory St,43.053872,-89.391782,MMT,CMAD,0,,1,90,1,W Olin,599,Hickory
153,0153,E Olin & Quann (EB),This stop (#0153) is eastbound on the 199 block of Olin Ave (E) farside Quann Pkwy,43.052132,-89.38075,MMT,CMAD,0,,1,90,1,E Olin,199,Quann
160,0160,University & N Randall (WB),This stop (#0160) is westbound on the 1400 block of University Ave farside Randall Ave (N),43.073481,-89.409413,MMT,CMAD,0,,1,270,1,University,1400,N Randall
161,0161,S Broom & W Doty (NB),This stop (#0161) is northbound on the 199 block of Broom St (S) farside Doty St (W),43.070146,-89.387071,MMT,CMAD,0,,1,0,1,S Broom,199,W Doty
162,0162,S Park & Meriter (SB),This stop (#0162) is southbound on the 100 block of Park St (S) adjacent Meriter Hospital,43.065091,-89.400997,MMT,CMAD,0,,2,180,1,S Park,100,Meriter
166,0166,Rimrock & John Nolen (WB),This stop (#0166) is westbound on the 2000 block of Rimrock Rd farside John Nolen Dr,43.045854,-89.375546,MMT,CMAD,0,,1,270,1,Rimrock,2000,John Nolen
173,0173,W Badger & Cypress (EB),This stop (#0173) is eastbound on the 901 block of Badger Rd (W) nearside Cypress Way,43.03843,-89.397946,MMT,CMAD,0,,3,90,1,W Badger,901,Cypress
174,0174,S Park & Fish Hatchery (SB),This stop (#0174) is southbound on the 1000 block of Park St (S) farside Fish Hatchery Rd,43.056451,-89.398716,MMT,CMAD,0,,1,180,1,S Park,1000,Fish Hatchery
178,0178,University & N Orchard (WB),This stop (#0178) is westbound on the 1300 block of University Ave farside Orchard St (N),43.073427,-89.407056,MMT,CMAD,0,,1,270,1,University,1300,N Orchard
180,0180,N Park & W Dayton (SB),This stop (#0180) is southbound on the 200 block of Park St (N) nearside Dayton St (W),43.071098,-89.401081,MMT,CMAD,0,,3,180,1,N Park,200,W Dayton
181,0181,S Park & Cedar (NB),This stop (#0181) is northbound on the 1399 block of Park St (S) farside Cedar St,43.052252,-89.394806,MMT,CMAD,0,,1,0,1,S Park,1399,Cedar
184,0184,Linden & Henry (WB),This stop (#0184) is westbound on the 1498 block of Linden Dr nearside Henry Mall,43.075254,-89.410413,MMT,UWIS,0,,3,270,1,Linden,1498,Henry
195,0195,S Park & Crosswalk (NB),This stop (#0195) is northbound on the 1801 block of Park St (S) adjacent Pedestrian Crosswalk,43.04705,-89.393808,MMT,CMAD,0,,2,0,1,S Park,1801,Crosswalk
203,0203,Rimrock & E Rusk (NB),This stop (#0203) is northbound on the 2149 block of Rimrock Rd farside Rusk Ave (E),43.043214,-89.376979,MMT,CMAD,0,,1,0,1,Rimrock,2149,E Rusk
208,0208,Regent & N Orchard (WB),This stop (#0208) is westbound on the 1298 block of Regent St nearside Orchard St (N),43.067849,-89.407131,MMT,CMAD,0,,3,270,1,Regent,1298,N Orchard
217,0217,S Park & W Washington (NB),This stop (#0217) is northbound on the 399 block of Park St (S) farside W Washington Ave,43.063668,-89.400528,MMT,CMAD,0,,1,0,1,S Park,399,W Washington
222,0222,Fisher & Bram (SB),This stop (#0222) is southbound on the 1900 block of Fisher St farside Bram St,43.045474,-89.391946,MMT,CMAD,0,,1,180,1,Fisher,1900,Bram
226,0226,Regent & W Washington (WB),This stop (#0226) is westbound on the 601 block of Regent St farside W Washington Ave,43.067615,-89.396589,MMT,CMAD,0,,1,270,1,Regent,601,W Washington
234,0234,University & N Mills (WB),This stop (#0234) is westbound on the 1098 block of University Ave nearside Mills St (N),43.073427,-89.403883,MMT,CMAD,0,,3,270,1,University,1098,N Mills
241,0241,Monroe & S Breese (EB),This stop (#0241) is eastbound on the 1615 block of Monroe St opposite Breese Ter (S),43.066919,-89.413883,MMT,CMAD,0,,4,90,1,Monroe,1615,S Breese
243,0243,John Nolen & Rimrock (NB),This stop (#0243) is northbound on the 698 block of John Nolen Dr farside Rimrock Rd,43.047242,-89.374681,MMT,CMAD,0,,1,0,1,John Nolen,698,Rimrock
251,0251,S Park & Erin (NB),This stop (#0251) is northbound on the 699 block of Park St (S) farside Erin St,43.060167,-89.40053,MMT,CMAD,0,,1,0,1,S Park,699,Erin
252,0252,State & W Gorham (WB),This stop (#0252) is westbound on the 398 block of State St nearside Gorham St (W),43.07491,-89.391303,MMT,CMAD,0,,3,270,1,State,398,W Gorham
269,0269,N Brooks & W Johnson (NB),This stop (#0269) is northbound on the 301 block of Brooks St (N) farside Johnson St (W),43.072388,-89.402303,MMT,CMAD,0,,1,0,1,N Brooks,301,W Johnson
271,0271,Regent & S Park (EB),This stop (#0271) is eastbound on the 899 block of Regent St farside Park St (S),43.067544,-89.40049,MMT,CMAD,0,,1,90,1,Regent,899,S Park
273,0273,Regent & W Washington (EB),This stop (#0273) is eastbound on the 601 block of Regent St nearside W Washington Ave,43.067346,-89.396935,MMT,CMAD,0,,3,90,1,Regent,601,W Washington
274,0274,W Washington & N Broom (WB),This stop (#0274) is westbound on the 400 block of W Washington Ave farside Broom St (N),43.071248,-89.389243,MMT,CMAD,0,,1,270,1,W Washington,400,N Broom
286,0286,Drake & S Mills (WB),This stop (#0286) is westbound on the 1100 block of Drake St farside Mills St (S),43.062173,-89.404417,MMT,CMAD,0,,1,270,0,Drake,1100,S Mills
287,0287,W Badger & Colonial Heights (EB),This stop (#0287) is eastbound on the 633 block of Badger Rd (W) opposite Colonial Heights,43.038339,-89.390839,MMT,CMAD,0,,4,90,0,W Badger,633,Colonial Heights
288,0288,S Park & Erin (SB),This stop (#0288) is southbound on the 700 block of Park St (S) farside Erin St,43.059621,-89.400999,MMT,CMAD,0,,1,180,1,S Park,700,Erin
289,0289,W Olin & Gilson (EB),This stop (#0289) is eastbound on the 499 block of Olin Ave (W) farside Gilson St,43.053844,-89.389869,MMT,CMAD,0,,1,90,1,W Olin,499,Gilson
298,0298,Babcock & Linden (SB),This stop (#0298) is southbound on the 500 block of Babcock Dr nearside Linden Dr,43.07529,-89.412894,MMT,UWIS,0,,3,180,1,Babcock,500,Linden
300,0300,Erin & S Mills (WB),This stop (#0300) is westbound on the 1098 block of Erin St nearside Mills St (S),43.059989,-89.40385,MMT,CMAD,0,,3,270,1,Erin,1098,S Mills
305,0305,W Olin & Colby (EB),This stop (#0305) is eastbound on the 101 block of Olin Ave (W) farside Colby St,43.052912,-89.383686,MMT,CMAD,0,,1,90,1,W Olin,101,Colby
320,0320,Fisher & Dane (SB),This stop (#0320) is southbound on the 2098 block of Fisher St nearside Dane St,43.04312,-89.392033,MMT,CMAD,0,,3,180,1,Fisher,2098,Dane
327,0327,Regent & S Mills (EB),This stop (#0327) is eastbound on the 1099 block of Regent St farside Mills St (S),43.067598,-89.403675,MMT,CMAD,0,,1,90,1,Regent,1099,S Mills
336,0336,N Randall & Engineering (SB),This stop (#0336) is southbound on the 298 block of Randall Ave (N) farside Engineering Dr,43.072028,-89.409136,MMT,CMAD,0,,1,180,1,N Randall,298,Engineering
353,0353,W Badger & Fish Hatchery (EB),This stop (#0353) is eastbound on the 1121 block of Badger Rd (W) farside Fish Hatchery Rd,43.038494,-89.403362,MMT,CMAD,0,,1,90,1,W Badger,1121,Fish Hatchery
360,0360,S Park & W Olin (SB),This stop (#0360) is southbound on the 1198 block of Park St (S) nearside Olin Ave (W),43.054114,-89.396841,MMT,CMAD,0,,3,180,1,S Park,1198,W Olin
365,0365,S Randall & Mound (NB),This stop (#0365) is northbound on the 201 block of Randall Ave (S) nearside Mound St,43.065164,-89.408847,MMT,CMAD,0,,3,0,0,S Randall,201,Mound
367,0367,W Olin & Lake (EB),This stop (#0367) is eastbound on the 299 block of Olin Ave (W) farside Lake Ct,43.053682,-89.386709,MMT,CMAD,0,,1,90,1,W Olin,299,Lake
379,0379,John Nolen & E Olin (NB),This stop (#0379) is northbound on the 499 block of John Nolen Dr farside Olin Ave (E),43.051603,-89.377887,MMT,CMAD,0,,1,0,1,John Nolen,499,E Olin
388,0388,N Park & Spring (SB),This stop (#0388) is southbound on the 100 block of Park St (N) nearside Spring St,43.069451,-89.401168,MMT,CMAD,0,,3,180,1,N Park,100,Spring
391,0391,Fish Hatchery & Carver (NB),This stop (#0391) is northbound on the 2001 block of Fish Hatchery Rd nearside Carver St,43.044438,-89.403805,MMT,CMAD,0,,3,0,1,Fish Hatchery,2001,Carver
398,0398,Regent & N Randall (WB),This stop (#0398) is westbound on the 1400 block of Regent St farside Randall Ave (N),43.067877,-89.409353,MMT,CMAD,0,,1,270,1,Regent,1400,N Randall
405,0405,Fish Hatchery & Catalpa (NB),This stop (#0405) is northbound on the 2199 block of Fish Hatchery Rd farside Catalpa Rd,43.041851,-89.403818,MMT,CMAD,0,,1,0,1,Fish Hatchery,2199,Catalpa
406,0406,Regent & N Breese (WB),This stop (#0406) is westbound on the 1600 block of Regent St farside Breese Ter (N),43.067931,-89.414278,MMT,CMAD,0,,1,270,1,Regent,1600,N Breese
418,0418,W Washington & N Bedford (WB),This stop (#0418) is westbound on the 598 block of W Washington Ave nearside Bedford St (N),43.069002,-89.392429,MMT,CMAD,0,,3,270,1,W Washington,598,N Bedford
422,0422,S Randall & Regent (SB),This stop (#0422) is southbound on the 2 block of Randall Ave (S) farside Regent St,43.067501,-89.409131,MMT,CMAD,0,,1,180,0,S Randall,2,Regent
435,0435,W Johnson & N Lake (EB),This stop (#0435) is eastbound on the 699 block of Johnson St (W) farside Lake St (N),43.071921,-89.397094,MMT,CMAD,0,,1,90,1,W Johnson,699,N Lake
438,0438,Linden & N Charter (EB),This stop (#0438) is eastbound on the 498 block of Linden Dr nearside Charter St (N),43.074985,-89.406401,MMT,UWIS,0,,3,90,1,Linden,498,N Charter
448,0448,Rimrock & E Rusk (SB),This stop (#0448) is southbound on the 2150 block of Rimrock Rd farside Rusk Ave (E),43.04248,-89.377683,MMT,CMAD,0,,1,180,1,Rimrock,2150,E Rusk
454,0454,N Breese & Hoyt (SB),This stop (#0454) is southbound on the 124 block of Breese Ter (N) nearside Hoyt St,43.070438,-89.414055,MMT,CMAD,0,,3,180,1,N Breese,124,Hoyt
455,0455,W Johnson & N Park (EB),This stop (#0455) is eastbound on the 899 block of Johnson St (W) farside Park St (N),43.071967,-89.400106,MMT,CMAD,0,,1,90,1,W Johnson,899,N Park
456,0456,Fish Hatchery & Carver (SB),This stop (#0456) is southbound on the 2000 block of Fish Hatchery Rd farside Carver St,43.044304,-89.404113,MMT,CMAD,0,,1,180,1,Fish Hatchery,2000,Carver
459,0459,Erin & S Mills (EB),This stop (#0459) is eastbound on the 1099 block of Erin St farside Mills St (S),43.059774,-89.403665,MMT,CMAD,0,,1,90,1,Erin,1099,S Mills
462,0462,W Badger & Overpass (WB),This stop (#0462) is westbound on the 600 block of Badger Rd (W) opposite Pedestrian Overpass,43.038517,-89.388457,MMT,CMAD,0,,4,270,1,W Badger,600,Overpass
469,0469,W Washington & Southwest (EB),This stop (#0469) is eastbound on the 651 block of W Washington Ave adjacent Southwest Path,43.067543,-89.394121,MMT,CMAD,0,,2,90,1,W Washington,651,Southwest
470,0470,N Bassett & W Dayton (SB),This stop (#0470) is southbound on the 200 block of Bassett St (N) nearside Dayton St (W),43.071625,-89.39286,MMT,CMAD,0,,3,180,1,N Bassett,200,W Dayton
473,0473,W Washington & S Bassett (EB),This stop (#0473) is eastbound on the 499 block of W Washington Ave farside Bassett St (S),43.070228,-89.390293,MMT,CMAD,0,,1,90,1,W Washington,499,S Bassett
475,0475,S Park & Buick (NB),This stop (#0475) is northbound on the 2201 block of Park St (S) nearside Buick St,43.041625,-89.393786,MMT,CMAD,0,,3,0,1,S Park,2201,Buick
480,0480,W Gorham & N Henry (WB),This stop (#0480) is westbound on the 200 block of Gorham St (W) farside Henry St (N),43.075322,-89.391155,MMT,CMAD,0,,1,270,1,W Gorham,200,N Henry
483,0483,N Park & Spring (NB),This stop (#0483) is northbound on the 99 block of Park St (N) nearside Spring St,43.069254,-89.400712,MMT,CMAD,0,,3,0,1,N Park,99,Spring
488,0488,Linden & N Charter (WB),This stop (#0488) is westbound on the 1200 block of Linden Dr farside Charter St (N),43.0752,-89.407339,MMT,UWIS,0,,1,270,1,Linden,1200,N Charter
490,0490,N Charter & W Johnson (SB),This stop (#0490) is southbound on the 300 block of Charter St (N) nearside Johnson St (W),43.072299,-89.405883,MMT,CMAD,0,,3,180,1,N Charter,300,W Johnson
492,0492,John Nolen & Lakeside (SB),This stop (#0492) is southbound on the 300 block of John Nolen Dr farside Lakeside St (E),43.055713,-89.381932,MMT,CMAD,0,,1,180,1,John Nolen,300,Lakeside
496,0496,Koster & Ardmore (WB),This stop (#0496) is westbound on the 198 block of Koster St nearside Ardmore Dr,43.044148,-89.385493,MMT,CMAD,0,,3,270,1,Koster,198,Ardmore
499,0499,Fish Hatchery & W Badger (NB),This stop (#0499) is northbound on the 2499 block of Fish Hatchery Rd farside Badger Rd (W),43.038914,-89.403757,MMT,CMAD,0,,1,0,1,Fish Hatchery,2499,W Badger
512,0512,W Washington & N Bassett (WB),This stop (#0512) is westbound on the 500 block of W Washington Ave farside Bassett St (N),43.069986,-89.391021,MMT,CMAD,0,,1,270,1,W Washington,500,N Bassett
519,0519,S Park & Fish Hatchery (NB),This stop (#0519) is northbound on the 999 block of Park St (S) farside Fish Hatchery Rd,43.057212,-89.398803,MMT,CMAD,0,,1,0,1,S Park,999,Fish Hatchery
528,0528,S Bassett & W Doty (SB),This stop (#0528) is southbound on the 200 block of Bassett St (S) farside Doty St (W),43.068329,-89.388553,MMT,CMAD,0,,1,180,1,S Bassett,200,W Doty
532,0532,Linden & Babcock (WB),This stop (#0532) is westbound on the 1598 block of Linden Dr nearside Babcock Dr,43.075254,-89.412549,MMT,UWIS,0,,3,270,1,Linden,1598,Babcock
533,0533,Regent & N Breese (EB),This stop (#0533) is eastbound on the 1599 block of Regent St farside Breese Ter (N),43.067725,-89.413451,MMT,CMAD,0,,1,90,1,Regent,1599,N Breese
537,0537,W Johnson & Wisconsin (EB),This stop (#0537) is eastbound on the 1 block of Johnson St (W) nearside Wisconsin Ave,43.076691,-89.387018,MMT,CMAD,0,,3,90,1,W Johnson,1,Wisconsin
538,0538,N Park & University (SB),This stop (#0538) is southbound on the 398 block of Park St (N) farside University Ave,43.072701,-89.400846,MMT,CMAD,0,,1,180,1,N Park,398,University
542,0542,N Breese & University (SB),This stop (#0542) is southbound on the 398 block of Breese Ter (N) farside University Ave,43.073132,-89.414055,MMT,CMAD,0,,1,180,1,N Breese,398,University
546,0546,S Park & Regent (SB),This stop (#0546) is southbound on the 2 block of Park St (S) farside Regent St,43.067392,-89.401194,MMT,CMAD,0,,1,180,1,S Park,2,Regent
548,0548,Regent & N Mills (WB),This stop (#0548) is westbound on the 1100 block of Regent St farside Mills St (N),43.067822,-89.404428,MMT,CMAD,0,,1,270,1,Regent,1100,N Mills
558,0558,N Bedford & W Mifflin (SB),This stop (#0558) is southbound on the 100 block of Bedford St (N) nearside Mifflin St (W),43.0697,-89.393799,MMT,CMAD,0,,3,180,1,N Bedford,100,W Mifflin
561,0561,N Park & W Dayton (NB),This stop (#0561) is northbound on the 199 block of Park St (N) nearside Dayton St (W),43.070821,-89.400637,MMT,CMAD,0,,3,0,1,N Park,199,W Dayton
564,0564,W Wilson & S Henry (WB),This stop (#0564) is westbound on the 298 block of Wilson St (W) nearside Henry St (S),43.070692,-89.384195,MMT,CMAD,0,,3,270,1,W Wilson,298,S Henry
565,0565,N Rusk & Nygard (NB),This stop (#0565) is northbound on the 2199 block of Rusk Ave (N) farside Nygard St,43.041336,-89.384063,MMT,CMAD,0,,1,0,1,N Rusk,2199,Nygard
568,0568,University & N Frances (WB),This stop (#0568) is westbound on the 600 block of University Ave farside Frances St (N),43.073309,-89.396192,MMT,CMAD,0,,1,270,1,University,600,N Frances
571,0571,Drake & S Mills (EB),This stop (#0571) is eastbound on the 1101 block of Drake St nearside Mills St (S),43.061958,-89.404232,MMT,CMAD,0,,3,90,0,Drake,1101,S Mills
573,0573,Linden & Henry (EB),This stop (#0573) is eastbound on the 1499 block of Linden Dr nearside Henry Mall,43.07503,-89.410339,MMT,UWIS,0,,3,90,1,Linden,1499,Henry
581,0581,W Johnson & N Charter (EB),This stop (#0581) is eastbound on the 1201 block of Johnson St (W) nearside Charter St (N),43.072057,-89.40592,MMT,CMAD,0,,3,90,1,W Johnson,1201,N Charter
582,0582,S Park & Crosswalk (SB),This stop (#0582) is southbound on the 1800 block of Park St (S) adjacent Pedestrian Crosswalk,43.046916,-89.394302,MMT,CMAD,0,,2,180,1,S Park,1800,Crosswalk
585,0585,Regent & S Orchard (EB),This stop (#0585) is eastbound on the 1299 block of Regent St farside Orchard St (S),43.067635,-89.406946,MMT,CMAD,0,,1,90,1,Regent,1299,S Orchard
590,0590,W Badger & Cypress (WB),This stop (#0590) is westbound on the 900 block of Badger Rd (W) farside Cypress Way,43.038645,-89.397699,MMT,CMAD,0,,1,270,1,W Badger,900,Cypress
593,0593,N Broom & W Dayton (NB),This stop (#0593) is northbound on the 201 block of Broom St (N) farside Dayton St (W),43.073129,-89.391032,MMT,CMAD,0,,1,0,1,N Broom,201,W Dayton
610,0610,Monroe & N Randall (WB),This stop (#0610) is westbound on the 1400 block of Monroe St farside Randall Ave (N),43.070052,-89.409352,MMT,CMAD,0,,1,270,1,Monroe,1400,N Randall
621,0621,John Nolen & Lakeside (NB),This stop (#0621) is northbound on the 299 block of John Nolen Dr farside Lakeside St (E),43.056322,-89.381932,MMT,CMAD,0,,1,0,1,John Nolen,299,Lakeside
638,0638,S Randall & Drake (SB),This stop (#0638) is southbound on the 498 block of Randall Ave (S) nearside Drake St,43.062192,-89.409144,MMT,CMAD,0,,3,180,0,S Randall,498,Drake
668,0668,W Doty & S Henry (WB),This stop (#0668) is westbound on the 300 block of Doty St (W) farside Henry St (S),43.071005,-89.385503,MMT,CMAD,0,,1,270,1,W Doty,300,S Henry
670,0670,University & N Lake (WB),This stop (#0670) is westbound on the 700 block of University Ave farside Lake St (N),43.073336,-89.397994,MMT,CMAD,0,,1,270,1,University,700,N Lake
692,0692,University & N Breese (WB),This stop (#0692) is westbound on the 1600 block of University Ave farside Breese Ter (N),43.073517,-89.414277,MMT,CMAD,0,,1,270,1,University,1600,N Breese
706,0706,N Charter & University (SB),This stop (#0706) is southbound on the 400 block of Charter St (N) nearside University Ave,43.073767,-89.406352,MMT,UWIS,0,,3,180,1,N Charter,400,University
709,0709,S Park & Burr Oak (NB),This stop (#0709) is northbound on the 1999 block of Park St (S) farside Burr Oak Ln,43.044427,-89.39381,MMT,CMAD,0,,1,0,1,S Park,1999,Burr Oak
710,0710,S Bassett & W Washington (SB),This stop (#0710) is southbound on the 2 block of Bassett St (S) farside W Washington Ave,43.069834,-89.390515,MMT,CMAD,0,,1,180,1,S Bassett,2,W Washington
715,0715,S Park & Meriter (NB),This stop (#0715) is northbound on the 101 block of Park St (S) opposite Meriter Hospital,43.065378,-89.400515,MMT,CMAD,0,,4,0,1,S Park,101,Meriter
730,0730,S Park & Burr Oak (SB),This stop (#0730) is southbound on the 1998 block of Park St (S) nearside Burr Oak Ln,43.044293,-89.394303,MMT,CMAD,0,,3,180,1,S Park,1998,Burr Oak
736,0736,Fish Hatchery & Wingra (SB),This stop (#0736) is southbound on the 1700 block of Fish Hatchery Rd farside Wingra Dr (N),43.050122,-89.400212,MMT,CMAD,0,,1,180,1,Fish Hatchery,1700,Wingra
743,0743,W Johnson & N Mills (EB),This stop (#0743) is eastbound on the 1099 block of Johnson St (W) farside Mills St (N),43.072012,-89.403735,MMT,CMAD,0,,1,90,1,W Johnson,1099,N Mills
749,0749,S Park & Wingra (NB),This stop (#0749) is northbound on the 1701 block of Park St (S) nearside Wingra Dr (W),43.049074,-89.393808,MMT,CMAD,0,,3,0,1,S Park,1701,Wingra
752,0752,E Gorham & N Butler (WB),This stop (#0752) is westbound on the 300 block of Gorham St (E) nearside Butler St (N),43.079833,-89.384745,MMT,CMAD,0,,3,270,1,E Gorham,300,N Butler
757,0757,N Charter & University (NB),This stop (#0757) is northbound on the 401 block of Charter St (N) farside University Ave,43.07417,-89.406055,MMT,UWIS,0,,1,0,1,N Charter,401,University
763,0763,W Badger & N Rusk (EB),This stop (#0763) is eastbound on the 401 block of Badger Rd (W) opposite Rusk Ave (N),43.038838,-89.384348,MMT,CMAD,0,,4,90,1,W Badger,401,N Rusk
765,0765,N Lake & University (NB),This stop (#0765) is northbound on the 399 block of Lake St (N) nearside University Ave,43.073076,-89.397291,MMT,CMAD,0,,3,0,1,N Lake,399,University
768,0768,W Washington & Southwest (WB),This stop (#0768) is westbound on the 650 block of W Washington Ave adjacent Southwest Path,43.067928,-89.393972,MMT,CMAD,0,,2,270,1,W Washington,650,Southwest
782,0782,W Badger & Fiedler (WB),This stop (#0782) is westbound on the 1100 block of Badger Rd (W) farside Fiedler Ln,43.03869,-89.401869,MMT,CMAD,0,,1,270,1,W Badger,1100,Fiedler
790,0790,W Washington & N Fairchild (WB),This stop (#0790) is westbound on the 200 block of W Washington Ave farside Fairchild St (N),43.073128,-89.386588,MMT,CMAD,0,,1,270,1,W Washington,200,N Fairchild
791,0791,W Wilson & S Hamilton (EB),This stop (#0791) is eastbound on the 301 block of Wilson St (W) nearside Hamilton St (S),43.070262,-89.384331,MMT,CMAD,0,,3,90,0,W Wilson,301,S Hamilton
794,0794,N Randall & Monroe (SB),This stop (#0794) is southbound on the 98 block of Randall Ave (N) farside Monroe St,43.069891,-89.409155,MMT,CMAD,0,,1,180,0,N Randall,98,Monroe
795,0795,N Park & State (NB),This stop (#0795) is northbound on the 499 block of Park St (N) adjacent State St Mall,43.074599,-89.400488,MMT,CMAD,0,,2,0,1,N Park,499,State
806,0806,S Randall & Mound (SB),This stop (#0806) is southbound on the 198 block of Randall Ave (S) nearside Mound St,43.065441,-89.409131,MMT,CMAD,0,,3,180,0,S Randall,198,Mound
809,0809,Campus & Babcock (EB),This stop (#0809) is eastbound on the 1501 block of Campus Dr nearside Babcock Dr,43.073177,-89.410858,MMT,CMAD,0,,3,90,1,Campus,1501,Babcock
816,0816,Fish Hatchery & W Badger (SB),This stop (#0816) is southbound on the 2500 block of Fish Hatchery Rd farside Badger Rd (W),43.038377,-89.404275,MMT,CMAD,0,,1,180,1,Fish Hatchery,2500,W Badger
828,0828,E Rusk & Rimrock (WB),This stop (#0828) is westbound on the 398 block of Rusk Ave (E) farside Rimrock Rd,43.04282,-89.377831,MMT,CMAD,0,,1,270,1,E Rusk,398,Rimrock
839,0839,W Johnson & N Broom (EB),This stop (#0839) is eastbound on the 399 block of Johnson St (W) farside Broom St (N),43.073639,-89.391365,MMT,CMAD,0,,1,90,1,W Johnson,399,N Broom
840,0840,S Park & W Washington (SB),This stop (#0840) is southbound on the 400 block of Park St (S) farside W Washington Ave,43.06288,-89.401022,MMT,CMAD,0,,1,180,1,S Park,400,W Washington
845,0845,Fish Hatchery & Plaenert (NB),This stop (#0845) is northbound on the 1701 block of Fish Hatchery Rd nearside Plaenert Dr,43.049317,-89.400521,MMT,CMAD,0,,3,0,1,Fish Hatchery,1701,Plaenert
847,0847,Fish Hatchery & Cedar (NB),This stop (#0847) is northbound on the 1321 block of Fish Hatchery Rd farside Cedar St,43.052226,-89.398928,MMT,CMAD,0,,1,0,1,Fish Hatchery,1321,Cedar
853,0853,W Dayton & N Frances (EB),This stop (#0853) is eastbound on the 601 block of Dayton St (W) farside Frances St (N),43.070757,-89.395527,MMT,CMAD,0,,1,90,1,W Dayton,601,N Frances
857,0857,N Randall & W Dayton (NB),This stop (#0857) is northbound on the 201 block of Randall Ave (N) farside Dayton St (W),43.071359,-89.408871,MMT,CMAD,0,,1,0,0,N Randall,201,W Dayton
862,0862,John Nolen & E Olin (SB),This stop (#0862) is southbound on the 501 block of John Nolen Dr farside Olin Ave (E),43.05034,-89.3779,MMT,CMAD,0,,1,180,1,John Nolen,501,E Olin
879,0879,W Olin & S Park (EB),This stop (#0879) is eastbound on the 899 block of Olin Ave (W) farside Park St (S),43.053935,-89.396039,MMT,CMAD,0,,1,90,1,W Olin,899,S Park
883,0883,State & N Fairchild (EB),This stop (#0883) is eastbound on the 201 block of State St nearside Fairchild St (N),43.074641,-89.388217,MMT,CMAD,0,,3,90,1,State,201,N Fairchild
894,0894,E Rusk & N Rusk (WB),This stop (#0894) is westbound on the 398 block of Rusk Ave (E) nearside Rusk Ave (N),43.039161,-89.383916,MMT,CMAD,0,,3,270,1,E Rusk,398,N Rusk
895,0895,W Badger & Overpass (EB),This stop (#0895) is eastbound on the 601 block of Badger Rd (W) adjacent Pedestrian Overpass,43.038311,-89.388642,MMT,CMAD,0,,2,90,1,W Badger,601,Overpass
896,0896,S Park & Cedar (SB),This stop (#0896) is southbound on the 1400 block of Park St (S) farside Cedar St,43.051598,-89.394942,MMT,CMAD,0,,1,180,1,S Park,1400,Cedar
898,0898,State & W Johnson (WB),This stop (#0898) is westbound on the 298 block of State St nearside Johnson St (W),43.074883,-89.389575,MMT,CMAD,0,,3,270,1,State,298,W Johnson
904,0904,Erin & S Park (WB),This stop (#0904) is westbound on the 900 block of Erin St farside Park St (S),43.059997,-89.401221,MMT,CMAD,0,,1,270,1,Erin,900,S Park
906,0906,S Park & Buick (SB),This stop (#0906) is southbound on the 2200 block of Park St (S) farside Buick St,43.041491,-89.394255,MMT,CMAD,0,,1,180,1,S Park,2200,Buick
914,0914,W Gorham & Wisconsin (WB),This stop (#0914) is westbound on the 2 block of Gorham St (W) farside Wisconsin Ave,43.077372,-89.388191,MMT,CMAD,0,,1,270,1,W Gorham,2,Wisconsin
915,0915,Fish Hatchery & Midland (NB),This stop (#0915) is northbound on the 1199 block of Fish Hatchery Rd farside Midland St,43.054527,-89.398878,MMT,CMAD,0,,1,0,1,Fish Hatchery,1199,Midland
941,0941,W Johnson & N Frances (EB),This stop (#0941) is eastbound on the 599 block of Johnson St (W) farside Frances St (N),43.071894,-89.395489,MMT,CMAD,0,,1,90,1,W Johnson,599,N Frances
947,0947,S Randall & Drake (NB),This stop (#0947) is northbound on the 499 block of Randall Ave (S) farside Drake St,43.062326,-89.408848,MMT,CMAD,0,,1,0,0,S Randall,499,Drake
956,0956,Koster & Bram (WB),This stop (#0956) is westbound on the 398 block of Koster St nearside Bram St,43.045572,-89.388639,MMT,CMAD,0,,3,270,1,Koster,398,Bram
961,0961,N Broom & W Washington (NB),This stop (#0961) is northbound on the 1 block of Broom St (N) farside W Washington Ave,43.071624,-89.389045,MMT,CMAD,0,,1,0,1,N Broom,1,W Washington
962,0962,Regent & N Park (WB),This stop (#0962) is westbound on the 900 block of Regent St farside Park St (N),43.067768,-89.40149,MMT,CMAD,0,,1,270,1,Regent,900,N Park
967,0967,W Washington & S Bedford (EB),This stop (#0967) is eastbound on the 599 block of W Washington Ave farside Bedford St (S),43.068957,-89.392096,MMT,CMAD,0,,1,90,1,W Washington,599,S Bedford
977,0977,Regent & S Randall (EB),This stop (#0977) is eastbound on the 1399 block of Regent St farside Randall Ave (S),43.067653,-89.4086,MMT,CMAD,0,,1,90,0,Regent,1399,S Randall
989,0989,W Washington & S Broom (EB),This stop (#0989) is eastbound on the 399 block of W Washington Ave farside Broom St (S),43.07149,-89.388515,MMT,CMAD,0,,1,90,1,W Washington,399,S Broom
1100,1100,E Mifflin & N Pinckney (WB),This stop (#1100) is westbound on the 98 block of Mifflin St (E) farside Pinckney St (N),43.076028,-89.384661,MMT,CMAD,0,,1,270,1,E Mifflin,98,N Pinckney
1101,1101,Main & S Carroll (EB),This stop (#1101) is eastbound on the 99 block of Main St farside Carroll St (S),43.073297,-89.383773,MMT,CMAD,0,,1,90,1,Main,99,S Carroll
1105,1105,Milwaukee & Walter (EB),This stop (#1105) is eastbound on the 3509 block of Milwaukee St farside Walter St,43.098067,-89.326187,MMT,CMAD,0,,1,90,1,Milwaukee,3509,Walter
1107,1107,E Washington & S Second (EB),This stop (#1107) is eastbound on the 1999 block of E Washington Ave nearside Second St (S),43.09369,-89.35699,MMT,CMAD,0,,3,90,1,E Washington,1999,S Second
1112,1112,E Washington & Milwaukee (WB),This stop (#1112) is westbound on the 2598 block of E Washington Ave farside Milwaukee St,43.10023,-89.34913,MMT,CMAD,0,,1,270,1,E Washington,2598,Milwaukee
1116,1116,Fordem & Lakewood (SB),This stop (#1116) is southbound on the 1898 block of Fordem Ave farside Lakewood Garden Ln,43.096657,-89.363804,MMT,CMAD,0,,1,180,1,Fordem,1898,Lakewood
1121,1121,E Johnson & N Livingston (EB),This stop (#1121) is eastbound on the 799 block of Johnson St (E) nearside Livingston St (N),43.082937,-89.378175,MMT,CMAD,0,,3,90,1,E Johnson,799,N Livingston
1122,1122,N Sherman & Oxford (SB),This stop (#1122) is southbound on the 1000 block of Sherman Ave (N) nearside Oxford Pl,43.11014,-89.363978,MMT,CMAD,0,,3,180,1,N Sherman,1000,Oxford
1131,1131,E Johnson & N Third (EB),This stop (#1131) is eastbound on the 2101 block of Johnson St (E) farside Third St (N),43.097012,-89.358407,MMT,CMAD,0,,1,90,1,E Johnson,2101,N Third
1137,1137,Milwaukee & Corry (EB),This stop (#1137) is eastbound on the 2701 block of Milwaukee St farside Corry St,43.099888,-89.34466,MMT,CMAD,0,,1,90,1,Milwaukee,2701,Corry
1138,1138,E Gorham & N Blair (WB),This stop (#1138) is westbound on the 598 block of Gorham St (E) farside Blair St (N),43.081202,-89.382769,MMT,CMAD,0,,1,270,1,E Gorham,598,N Blair
1141,1141,E Washington & N Fourth (EB),This stop (#1141) is eastbound on the 2199 block of E Washington Ave nearside Fourth St (N),43.095891,-89.354074,MMT,CMAD,0,,3,90,1,E Washington,2199,N Fourth
1150,1150,E Wilson & S Blair (WB),This stop (#1150) is westbound on the 598 block of Wilson St (E) farside Blair St (S),43.076186,-89.376179,MMT,CMAD,0,,1,270,1,E Wilson,598,S Blair
1151,1151,E Johnson & N Paterson (EB),This stop (#1151) is eastbound on the 901 block of Johnson St (E) farside Paterson St (N),43.084548,-89.37584,MMT,CMAD,0,,1,90,1,E Johnson,901,N Paterson
1152,1152,Packers & Aberg (SB),This stop (#1152) is southbound on the 1298 block of Packers Ave farside Aberg Ave,43.11335,-89.35518,MMT,CMAD,0,,1,180,0,Packers,1298,Aberg
1153,1153,Walter & Dawes (NB),This stop (#1153) is northbound on the 101 block of Walter St nearside Dawes St,43.095569,-89.326524,MMT,CMAD,0,,3,0,1,Walter,101,Dawes
1156,1156,N Sherman & Commercial (SB),This stop (#1156) is southbound on the 600 block of Sherman Ave (N) nearside Commercial Ave,43.106953,-89.364055,MMT,VMAP,0,,3,180,1,N Sherman,600,Commercial
1157,1157,N Baldwin & Sherman (NB),This stop (#1157) is northbound on the 499 block of Baldwin St (N) nearside Sherman Ave,43.091942,-89.372674,MMT,CMAD,0,,3,0,1,N Baldwin,499,Sherman
1160,1160,E Johnson & N Fourth (WB),This stop (#1160) is westbound on the 2198 block of Johnson St (E) farside Fourth St (N),43.098059,-89.357418,MMT,CMAD,0,,1,270,1,E Johnson,2198,N Fourth
1163,1163,W Washington & S Carroll (EB),This stop (#1163) is eastbound on the 101 block of W Washington Ave nearside Carroll St (S),43.073655,-89.385427,MMT,CMAD,0,,3,90,1,W Washington,101,S Carroll
1164,1164,E Washington & Aberg (WB),This stop (#1164) is westbound on the 3098 block of E Washington Ave farside Aberg Ave,43.106465,-89.340021,MMT,CMAD,0,,1,270,1,E Washington,3098,Aberg
1167,1167,Jenifer & S Livingston (EB),This stop (#1167) is eastbound on the 801 block of Jenifer St farside Livingston St (S),43.077867,-89.369993,MMT,CMAD,0,,1,90,1,Jenifer,801,S Livingston
1169,1169,Atwood & Walter (NB),This stop (#1169) is northbound on the 3498 block of Atwood Ave farside Walter St,43.089707,-89.329817,MMT,CMAD,0,,1,0,1,Atwood,3498,Walter
1177,1177,Fordem & Lakewood (NB),This stop (#1177) is northbound on the 1899 block of Fordem Ave nearside Lakewood Garden Ln,43.096916,-89.363631,MMT,CMAD,0,,3,0,1,Fordem,1899,Lakewood
1188,1188,Winnebago & Atwood (SB),This stop (#1188) is southbound on the 1998 block of Winnebago St farside Atwood Ave,43.091791,-89.355523,MMT,CMAD,0,,1,180,1,Winnebago,1998,Atwood
1190,1190,Jenifer & S Brearly (WB),This stop (#1190) is westbound on the 1000 block of Jenifer St nearside Brearly St (S),43.080238,-89.367028,MMT,CMAD,0,,3,270,1,Jenifer,1000,S Brearly
1194,1194,Jenifer & S Livingston (WB),This stop (#1194) is westbound on the 800 block of Jenifer St nearside Livingston St (S),43.077751,-89.370536,MMT,CMAD,0,,3,270,1,Jenifer,800,S Livingston
1199,1199,E Washington & S Ingersoll (EB),This stop (#1199) is eastbound on the 1101 block of E Washington Ave farside Ingersoll St (S),43.084904,-89.369296,MMT,CMAD,0,,1,90,1,E Washington,1101,S Ingersoll
1206,1206,Milwaukee & Leon (WB),This stop (#1206) is westbound on the 3468 block of Milwaukee St farside Leon St,43.098597,-89.329459,MMT,CMAD,0,,1,270,1,Milwaukee,3468,Leon
1208,1208,Williamson & Rogers (WB),This stop (#1208) is westbound on the 1500 block of Williamson St nearside Rogers St,43.087361,-89.359231,MMT,CMAD,0,,3,270,1,Williamson,1500,Rogers
1209,1209,E Johnson & N Ingersoll (EB),This stop (#1209) is eastbound on the 1101 block of Johnson St (E) farside Ingersoll St (N),43.08708,-89.372246,MMT,CMAD,0,,1,90,1,E Johnson,1101,N Ingersoll
1213,1213,Williamson & S Dickinson (EB),This stop (#1213) is eastbound on the 1401 block of Williamson St farside Dickinson St (S),43.085884,-89.360418,MMT,CMAD,0,,1,90,1,Williamson,1401,S Dickinson
1216,1216,Aberg & Packers (WB),This stop (#1216) is westbound on the 2198 block of Aberg Ave nearside Packers Ave,43.113744,-89.354797,MMT,CMAD,0,,3,270,0,Aberg,2198,Packers
1219,1219,Atwood & Waubesa (EB),This stop (#1219) is eastbound on the 2799 block of Atwood Ave nearside Waubesa St,43.093781,-89.343728,MMT,CMAD,0,,3,90,1,Atwood,2799,Waubesa
1220,1220,Milwaukee & N Bryan (WB),This stop (#1220) is westbound on the 3200 block of Milwaukee St nearside Bryan St (N),43.099882,-89.335459,MMT,CMAD,0,,3,270,1,Milwaukee,3200,N Bryan
1225,1225,Walter & Atwood (NB),This stop (#1225) is northbound on the 533 block of Walter St farside Atwood Ave,43.089689,-89.329138,MMT,CMAD,0,,1,0,1,Walter,533,Atwood
1227,1227,E Johnson & N Butler (EB),This stop (#1227) is eastbound on the 301 block of Johnson St (E) farside Butler St (N),43.079045,-89.383684,MMT,CMAD,0,,1,90,1,E Johnson,301,N Butler
1230,1230,E Wilson & S Butler (WB),This stop (#1230) is westbound on the 298 block of Wilson St (E) farside Butler St (S),43.074504,-89.378773,MMT,CMAD,0,,1,270,1,E Wilson,298,S Butler
1233,1233,E Washington & S Sixth (EB),This stop (#1233) is eastbound on the 2401 block of E Washington Ave farside Sixth St (S),43.098458,-89.350651,MMT,CMAD,0,,1,90,1,E Washington,2401,S Sixth
1241,1241,E Washington & S First (EB),This stop (#1241) is eastbound on the 1899 block of E Washington Ave nearside First St (S),43.092008,-89.359239,MMT,CMAD,0,,3,90,1,E Washington,1899,S First
1250,1250,E Gorham & N Baldwin (WB),This stop (#1250) is westbound on the 1298 block of Gorham St (E) farside Baldwin St (N),43.089497,-89.369614,MMT,CMAD,0,,1,270,1,E Gorham,1298,N Baldwin
1254,1254,N Sherman & Roth (SB),This stop (#1254) is southbound on the 1100 block of Sherman Ave (N) nearside Roth St,43.11228,-89.363964,MMT,CMAD,0,,3,180,1,N Sherman,1100,Roth
1267,1267,E Johnson & N Dickinson (EB),This stop (#1267) is eastbound on the 1401 block of Johnson St (E) farside Dickinson St (N),43.090856,-89.366921,MMT,CMAD,0,,1,90,1,E Johnson,1401,N Dickinson
1269,1269,E Washington & E Johnson (EB),This stop (#1269) is eastbound on the 2901 block of E Washington Ave farside Johnson St (E),43.10286,-89.344607,MMT,CMAD,0,,1,90,1,E Washington,2901,E Johnson
1270,1270,Walter & Milwaukee (SB),This stop (#1270) is southbound on the 2 block of Walter St farside Milwaukee St,43.097852,-89.326706,MMT,CMAD,0,,1,180,1,Walter,2,Milwaukee
1280,1280,E Washington & E Johnson (WB),This stop (#1280) is westbound on the 2898 block of E Washington Ave farside Johnson St (E),43.102878,-89.345545,MMT,CMAD,0,,1,270,1,E Washington,2898,E Johnson
1290,1290,Aberg & N Sherman (WB),This stop (#1290) is westbound on the 1700 block of Aberg Ave nearside Sherman Ave (N),43.114339,-89.363604,MMT,CMAD,0,,3,270,1,Aberg,1700,N Sherman
1293,1293,Milwaukee & E Washington (EB),This stop (#1293) is eastbound on the 2601 block of Milwaukee St farside E Washington Ave,43.100087,-89.348302,MMT,CMAD,0,,1,90,1,Milwaukee,2601,E Washington
1301,1301,North & E Washington (NB),This stop (#1301) is northbound on the 1 block of North St farside E Washington Ave,43.100875,-89.349067,MMT,CMAD,0,,1,0,1,North,1,E Washington
1309,1309,Milwaukee & Leon (EB),This stop (#1309) is eastbound on the 3470 block of Milwaukee St farside Leon St,43.098248,-89.329213,MMT,CMAD,0,,1,90,1,Milwaukee,3470,Leon
1311,1311,E Washington & Milwaukee (EB),This stop (#1311) is eastbound on the 2601 block of E Washington Ave farside Milwaukee St,43.100534,-89.348327,MMT,CMAD,0,,1,90,1,E Washington,2601,Milwaukee
1319,1319,E Johnson & N Seventh (EB),This stop (#1319) is eastbound on the 2499 block of Johnson St (E) nearside Seventh St (N),43.10145,-89.352512,MMT,CMAD,0,,3,90,0,E Johnson,2499,N Seventh
1321,1321,Atwood & S Fair Oaks (EB),This stop (#1321) is eastbound on the 3001 block of Atwood Ave farside Fair Oaks Ave (S),43.093582,-89.340691,MMT,CMAD,0,,1,90,0,Atwood,3001,S Fair Oaks
1323,1323,E Washington & S Webster (EB),This stop (#1323) is eastbound on the 201 block of E Washington Ave farside Webster St (S),43.076331,-89.381475,MMT,CMAD,0,,1,90,1,E Washington,201,S Webster
1325,1325,E Johnson & N Baldwin (EB),This stop (#1325) is eastbound on the 1301 block of Johnson St (E) farside Baldwin St (N),43.089622,-89.368749,MMT,CMAD,0,,1,90,1,E Johnson,1301,N Baldwin
1329,1329,Sherman & Sherman (EB),This stop (#1329) is eastbound on the 1659 block of Sherman Ave farside Sherman Ter,43.097097,-89.368002,MMT,CMAD,0,,1,90,1,Sherman,1659,Sherman
1333,1333,E Johnson & Fordem (EB),This stop (#1333) is eastbound on the 1699 block of Johnson St (E) nearside Fordem Ave,43.093129,-89.363622,MMT,CMAD,0,,3,90,1,E Johnson,1699,Fordem
1341,1341,N Sherman & Aberg (NB),This stop (#1341) is northbound on the 1299 block of Sherman Ave (N) nearside Aberg Ave,43.114089,-89.363653,MMT,CMAD,0,,3,0,1,N Sherman,1299,Aberg
1350,1350,E Washington & N First (WB),This stop (#1350) is westbound on the 1898 block of E Washington Ave farside First St (N),43.091981,-89.360054,MMT,CMAD,0,,1,270,1,E Washington,1898,N First
1375,1375,North & Hoard (NB),This stop (#1375) is northbound on the 499 block of North St nearside Hoard St,43.10486,-89.351002,MMT,CMAD,0,,3,0,0,North,499,Hoard
1379,1379,Fordem & Mcguire (NB),This stop (#1379) is northbound on the 2101 block of Fordem Ave farside Mcguire St,43.101124,-89.363887,MMT,CMAD,0,,1,0,1,Fordem,2101,Mcguire
1380,1380,Aberg & Loftsgordan (WB),This stop (#1380) is westbound on the 2000 block of Aberg Ave nearside Loftsgordan Ave,43.114291,-89.357255,MMT,CMAD,0,,3,270,1,Aberg,2000,Loftsgordan
1382,1382,E Washington & N Second (WB),This stop (#1382) is westbound on the 1998 block of E Washington Ave farside Second St (N),43.093851,-89.357484,MMT,CMAD,0,,1,270,1,E Washington,1998,N Second
1384,1384,Atwood & Division (WB),This stop (#1384) is westbound on the 2100 block of Atwood Ave farside Division St,43.092854,-89.351681,MMT,CMAD,0,,1,270,1,Atwood,2100,Division
1391,1391,Atwood & Ohio (EB),This stop (#1391) is eastbound on the 2401 block of Atwood Ave farside Ohio Ave,43.093675,-89.346679,MMT,CMAD,0,,1,90,1,Atwood,2401,Ohio
1392,1392,E Washington & N Livingston (WB),This stop (#1392) is westbound on the 800 block of E Washington Ave nearside Livingston St (N),43.081262,-89.375213,MMT,CMAD,0,,3,270,1,E Washington,800,N Livingston
1394,1394,Commercial & North (WB),This stop (#1394) is westbound on the 2498 block of Commercial Ave farside North St,43.106929,-89.35163,MMT,CMAD,0,,1,270,1,Commercial,2498,North
1397,1397,E Johnson & N Blount (EB),This stop (#1397) is eastbound on the 701 block of Johnson St (E) farside Blount St (N),43.082051,-89.37941,MMT,CMAD,0,,1,90,1,E Johnson,701,N Blount
1412,1412,E Washington & Yahara (WB),This stop (#1412) is westbound on the 1850 block of E Washington Ave adjacent Yahara River,43.090111,-89.3626,MMT,CMAD,0,,2,270,1,E Washington,1850,Yahara
1427,1427,Packers & Commercial (NB),This stop (#1427) is northbound on the 601 block of Packers Ave farside Commercial Ave,43.107091,-89.354359,MMT,CMAD,0,,1,0,1,Packers,601,Commercial
1435,1435,Commercial & North (EB),This stop (#1435) is eastbound on the 2499 block of Commercial Ave nearside North St,43.106714,-89.351445,MMT,CMAD,0,,3,90,1,Commercial,2499,North
1462,1462,Milwaukee & N Fair Oaks (WB),This stop (#1462) is westbound on the 3398 block of Milwaukee St farside Fair Oaks Ave (N),43.099808,-89.332508,MMT,CMAD,0,,1,270,1,Milwaukee,3398,N Fair Oaks
1472,1472,Winnebago & Riverside (SB),This stop (#1472) is southbound on the 1626 block of Winnebago St nearside Riverside Dr,43.088784,-89.357909,MMT,CMAD,0,,3,180,1,Winnebago,1626,Riverside
1478,1478,Walter & Richard (SB),This stop (#1478) is southbound on the 200 block of Walter St farside Richard St,43.093134,-89.326923,MMT,CMAD,0,,1,180,1,Walter,200,Richard
1480,1480,Williamson & S Blount (WB),This stop (#1480) is westbound on the 698 block of Williamson St farside Blount St (S),43.07691,-89.373734,MMT,CMAD,0,,1,270,1,Williamson,698,S Blount
1481,1481,E Washington & N Marquette (EB),This stop (#1481) is eastbound on the 3051 block of E Washington Ave farside Marquette St (N),43.104353,-89.34153,MMT,CMAD,0,,1,90,1,E Washington,3051,N Marquette
1482,1482,Milwaukee & N Marquette (WB),This stop (#1482) is westbound on the 2900 block of Milwaukee St nearside Marquette St (N),43.10002,-89.341387,MMT,CMAD,0,,3,270,1,Milwaukee,2900,N Marquette
1486,1486,E Wilson & M L K Junior (WB),This stop (#1486) is westbound on the 2 block of Wilson St (E) nearside Martin Luther King Jr Blvd,43.072705,-89.381305,MMT,CMAD,0,,3,270,1,E Wilson,2,M L K Junior
1488,1488,E Washington & S Fourth (WB),This stop (#1488) is westbound on the 2200 block of E Washington Ave nearside Fourth St (S),43.096428,-89.354049,MMT,CMAD,0,,3,270,1,E Washington,2200,S Fourth
1504,1504,Aberg & Ruskin (WB),This stop (#1504) is westbound on the 1798 block of Aberg Ave farside Ruskin St,43.114329,-89.361825,MMT,CMAD,0,,1,270,1,Aberg,1798,Ruskin
1505,1505,Jenifer & S Ingersoll (EB),This stop (#1505) is eastbound on the 1099 block of Jenifer St nearside Ingersoll St (S),43.081151,-89.365311,MMT,CMAD,0,,3,90,1,Jenifer,1099,S Ingersoll
1509,1509,Williamson & S Blount (EB),This stop (#1509) is eastbound on the 699 block of Williamson St farside Blount St (S),43.07717,-89.372784,MMT,CMAD,0,,1,90,1,Williamson,699,S Blount
1513,1513,E Washington & Yahara (EB),This stop (#1513) is eastbound on the 1851 block of E Washington Ave adjacent Yahara River,43.089771,-89.362415,MMT,CMAD,0,,2,90,1,E Washington,1851,Yahara
1518,1518,North & E Johnson (SB),This stop (#1518) is southbound on the 298 block of North St farside Johnson St (E),43.102845,-89.350325,MMT,CMAD,0,,1,180,1,North,298,E Johnson
1526,1526,Williamson & S Dickinson (WB),This stop (#1526) is westbound on the 1398 block of Williamson St farside Dickinson St (S),43.085634,-89.361147,MMT,CMAD,0,,1,270,1,Williamson,1398,S Dickinson
1530,1530,Jenifer & S Baldwin (WB),This stop (#1530) is westbound on the 1298 block of Jenifer St farside Baldwin St (S),43.083674,-89.362111,MMT,CMAD,0,,1,270,1,Jenifer,1298,S Baldwin
1533,1533,Sherman & Mcguire (EB),This stop (#1533) is eastbound on the 2099 block of Sherman Ave nearside Mcguire St,43.101098,-89.365319,MMT,CMAD,0,,3,90,1,Sherman,2099,Mcguire
1536,1536,Jenifer & S Paterson (WB),This stop (#1536) is westbound on the 900 block of Jenifer St nearside Paterson St (S),43.078985,-89.368807,MMT,CMAD,0,,3,270,1,Jenifer,900,S Paterson
1559,1559,Jenifer & S Few (EB),This stop (#1559) is eastbound on the 1199 block of Jenifer St nearside Few St (S),43.082421,-89.36352,MMT,CMAD,0,,3,90,1,Jenifer,1199,S Few
1561,1561,N Sherman & Roth (NB),This stop (#1561) is northbound on the 1101 block of Sherman Ave (N) farside Roth St,43.111841,-89.363667,MMT,CMAD,0,,1,0,0,N Sherman,1101,Roth
1563,1563,E Doty & M L K Junior (EB),This stop (#1563) is eastbound on the 1 block of Doty St (E) farside Martin Luther King Jr Blvd,43.073404,-89.381687,MMT,CMAD,0,,1,90,1,E Doty,1,M L K Junior
1565,1565,E Washington & S Paterson (EB),This stop (#1565) is eastbound on the 901 block of E Washington Ave farside Paterson St (S),43.082353,-89.372916,MMT,CMAD,0,,1,90,1,E Washington,901,S Paterson
1577,1577,Sherman & N Thornton (EB),This stop (#1577) is eastbound on the 1501 block of Sherman Ave farside Thornton Ave (N),43.094439,-89.369906,MMT,CMAD,0,,1,90,1,Sherman,1501,N Thornton
1579,1579,E Washington & S Blair (EB),This stop (#1579) is eastbound on the 599 block of E Washington Ave nearside Blair St (S),43.078282,-89.378684,MMT,CMAD,0,,3,90,1,E Washington,599,S Blair
1585,1585,Commercial & Packers (EB),This stop (#1585) is eastbound on the 2301 block of Commercial Ave farside Packers Ave,43.106715,-89.354273,MMT,CMAD,0,,1,90,1,Commercial,2301,Packers
1598,1598,North & E Mifflin (SB),This stop (#1598) is southbound on the 100 block of North St nearside Mifflin St (E),43.101395,-89.349622,MMT,CMAD,0,,3,180,1,North,100,E Mifflin
1615,1615,Jenifer & S Paterson (EB),This stop (#1615) is eastbound on the 899 block of Jenifer St nearside Paterson St (S),43.078654,-89.368869,MMT,CMAD,0,,3,90,1,Jenifer,899,S Paterson
1618,1618,E Washington & N Webster (WB),This stop (#1618) is westbound on the 198 block of E Washington Ave farside Webster St (N),43.076009,-89.382488,MMT,CMAD,0,,1,270,1,E Washington,198,N Webster
1622,1622,Atwood & Oakridge (NB),This stop (#1622) is northbound on the 3300 block of Atwood Ave nearside Oakridge Ave,43.092129,-89.336716,MMT,CMAD,0,,3,0,1,Atwood,3300,Oakridge
1635,1635,North & E Johnson (NB),This stop (#1635) is northbound on the 301 block of North St farside Johnson St (E),43.103454,-89.350324,MMT,CMAD,0,,1,0,1,North,301,E Johnson
1636,1636,E Gorham & N Ingersoll (WB),This stop (#1636) is westbound on the 1100 block of Gorham St (E) nearside Ingersoll St (N),43.08777,-89.373443,MMT,CMAD,0,,3,270,1,E Gorham,1100,N Ingersoll
1643,1643,Eastwood & Division (EB),This stop (#1643) is eastbound on the 2051 block of Eastwood Dr farside Division St,43.09254,-89.350706,MMT,CMAD,0,,1,90,1,Eastwood,2051,Division
1645,1645,Williamson & Rogers (EB),This stop (#1645) is eastbound on the 1501 block of Williamson St farside Rogers St,43.087343,-89.358898,MMT,CMAD,0,,1,90,1,Williamson,1501,Rogers
1650,1650,E Washington & N Ingersoll (WB),This stop (#1650) is westbound on the 1098 block of E Washington Ave farside Ingersoll St (N),43.084716,-89.370296,MMT,CMAD,0,,1,270,1,E Washington,1098,N Ingersoll
1658,1658,E Washington & N Blair (WB),This stop (#1658) is westbound on the 598 block of E Washington Ave farside Blair St (N),43.078461,-89.379165,MMT,CMAD,0,,1,270,0,E Washington,598,N Blair
1660,1660,E Washington & N Paterson (WB),This stop (#1660) is westbound on the 898 block of E Washington Ave farside Paterson St (N),43.082237,-89.373829,MMT,CMAD,0,,1,270,1,E Washington,898,N Paterson
1664,1664,E Gorham & N Blount (WB),This stop (#1664) is westbound on the 700 block of Gorham St (E) nearside Blount St (N),43.082741,-89.380595,MMT,CMAD,0,,3,270,1,E Gorham,700,N Blount
1675,1675,E Johnson & N Fourth (EB),This stop (#1675) is eastbound on the 2201 block of Johnson St (E) farside Fourth St (N),43.098301,-89.35669,MMT,CMAD,0,,1,90,1,E Johnson,2201,N Fourth
1679,1679,Packers & Aberg (NB),This stop (#1679) is northbound on the 1299 block of Packers Ave nearside Aberg Ave,43.112633,-89.353662,MMT,CMAD,0,,3,0,0,Packers,1299,Aberg
1682,1682,Atwood & Ohio (WB),This stop (#1682) is westbound on the 2400 block of Atwood Ave nearside Ohio Ave,43.093837,-89.346939,MMT,CMAD,0,,3,270,1,Atwood,2400,Ohio
1689,1689,Jenifer & S Baldwin (EB),This stop (#1689) is eastbound on the 1299 block of Jenifer St nearside Baldwin St (S),43.083665,-89.361729,MMT,CMAD,0,,3,90,1,Jenifer,1299,S Baldwin
1692,1692,Fordem & Mcguire (SB),This stop (#1692) is southbound on the 2100 block of Fordem Ave farside Mcguire St,43.100578,-89.364196,MMT,CMAD,0,,1,180,1,Fordem,2100,Mcguire
1700,1700,S Ingersoll & E Washington (SB),This stop (#1700) is southbound on the 98 block of Ingersoll St (S) farside E Washington Ave,43.084098,-89.36905,MMT,CMAD,0,,1,180,1,S Ingersoll,98,E Washington
1704,1704,E Johnson & N Sixth (WB),This stop (#1704) is westbound on the 2400 block of Johnson St (E) nearside Sixth St (N),43.100618,-89.354007,MMT,CMAD,0,,3,270,1,E Johnson,2400,N Sixth
1707,1707,Fordem & E Johnson (NB),This stop (#1707) is northbound on the 1601 block of Fordem Ave farside Johnson St (E),43.093603,-89.363498,MMT,CMAD,0,,1,0,1,Fordem,1601,E Johnson
1715,1715,N Sherman & Oxford (NB),This stop (#1715) is northbound on the 999 block of Sherman Ave (N) nearside Oxford Pl,43.109495,-89.363707,MMT,VMAP,0,,3,0,0,N Sherman,999,Oxford
1717,1717,N Sherman & Fordem (NB),This stop (#1717) is northbound on the 301 block of Sherman Ave (N) farside Fordem Ave,43.103622,-89.363835,MMT,CMAD,0,,1,0,1,N Sherman,301,Fordem
1718,1718,Atwood & S Fair Oaks (WB),This stop (#1718) is westbound on the 2998 block of Atwood Ave farside Fair Oaks Ave (S),43.093958,-89.341283,MMT,CMAD,0,,1,270,1,Atwood,2998,S Fair Oaks
1730,1730,E Washington & N Baldwin (WB),This stop (#1730) is westbound on the 1298 block of E Washington Ave farside Baldwin St (N),43.087266,-89.366689,MMT,CMAD,0,,1,270,1,E Washington,1298,N Baldwin
1731,1731,E Wilson & S Butler (EB),This stop (#1731) is eastbound on the 301 block of Wilson St (E) farside Butler St (S),43.074745,-89.378044,MMT,CMAD,0,,1,90,1,E Wilson,301,S Butler
1746,1746,Milwaukee & Corry (WB),This stop (#1746) is westbound on the 2700 block of Milwaukee St opposite Corry St,43.100112,-89.34503,MMT,CMAD,0,,4,270,1,Milwaukee,2700,Corry
1748,1748,Milwaukee & Farwell (WB),This stop (#1748) is westbound on the 2656 block of Milwaukee St nearside Farwell St,43.100148,-89.346561,MMT,CMAD,0,,3,270,1,Milwaukee,2656,Farwell
1750,1750,Jenifer & S Few (WB),This stop (#1750) is westbound on the 1200 block of Jenifer St nearside Few St (S),43.082752,-89.363446,MMT,CMAD,0,,3,270,1,Jenifer,1200,S Few
1751,1751,Milwaukee & N Fair Oaks (EB),This stop (#1751) is eastbound on the 3401 block of Milwaukee St farside Fair Oaks Ave (N),43.099405,-89.331817,MMT,CMAD,0,,1,90,1,Milwaukee,3401,N Fair Oaks
1757,1757,E Washington & Aberg (EB),This stop (#1757) is eastbound on the 3099 block of E Washington Ave nearside Aberg Ave,43.106375,-89.339477,MMT,CMAD,0,,3,90,1,E Washington,3099,Aberg
1759,1759,Aberg & Ruskin (EB),This stop (#1759) is eastbound on the 1801 block of Aberg Ave farside Ruskin St,43.114105,-89.361072,MMT,CMAD,0,,1,90,1,Aberg,1801,Ruskin
1766,1766,North & Hoard (SB),This stop (#1766) is southbound on the 500 block of North St nearside Hoard St,43.105084,-89.351397,MMT,CMAD,0,,3,180,0,North,500,Hoard
1767,1767,N Baldwin & E Johnson (NB),This stop (#1767) is northbound on the 301 block of Baldwin St (N) farside Johnson St (E),43.089783,-89.369317,MMT,CMAD,0,,1,0,1,N Baldwin,301,E Johnson
1780,1780,E Johnson & N First (WB),This stop (#1780) is westbound on the 1898 block of Johnson St (E) farside First St (N),43.094122,-89.362695,MMT,CMAD,0,,1,270,1,E Johnson,1898,N First
1785,1785,Walter & Hargrove (NB),This stop (#1785) is northbound on the 301 block of Walter St nearside Hargrove St,43.091433,-89.327382,MMT,CMAD,0,,3,0,1,Walter,301,Hargrove
1786,1786,Walter & Dawes (SB),This stop (#1786) is southbound on the 98 block of Walter St nearside Dawes St,43.095847,-89.326808,MMT,CMAD,0,,3,180,1,Walter,98,Dawes
1787,1787,S Pinckney & E Main (NB),This stop (#1787) is northbound on the 99 block of Pinckney St (S) farside Main St (E),43.075033,-89.382303,MMT,CMAD,0,,1,0,1,S Pinckney,99,E Main
1791,1791,N Blair & E Johnson (NB),This stop (#1791) is northbound on the 301 block of Blair St (N) farside Johnson St (E),43.080942,-89.381707,MMT,CMAD,0,,1,0,1,N Blair,301,E Johnson
1798,1798,E Johnson & N Dickinson (WB),This stop (#1798) is westbound on the 1400 block of Johnson St (E) nearside Dickinson St (N),43.09091,-89.367254,MMT,CMAD,0,,3,270,1,E Johnson,1400,N Dickinson
1809,1809,Walter & Richard (NB),This stop (#1809) is northbound on the 201 block of Walter St nearside Richard St,43.093268,-89.326626,MMT,CMAD,0,,3,0,1,Walter,201,Richard
1812,1812,E Johnson & N Third (WB),This stop (#1812) is westbound on the 2100 block of Johnson St (E) nearside Third St (N),43.097057,-89.358741,MMT,CMAD,0,,3,270,1,E Johnson,2100,N Third
1830,1830,Winnebago & S First (SB),This stop (#1830) is southbound on the 1904 block of Winnebago St nearside First St (S),43.090431,-89.356623,MMT,CMAD,0,,3,180,1,Winnebago,1904,S First
1831,1831,E Johnson & N Blair (EB),This stop (#1831) is eastbound on the 601 block of Johnson St (E) farside Blair St (N),43.08079,-89.381201,MMT,CMAD,0,,1,90,1,E Johnson,601,N Blair
1834,1834,E Gorham & N Paterson (WB),This stop (#1834) is westbound on the 900 block of Gorham St (E) nearside Paterson St (N),43.085229,-89.377062,MMT,CMAD,0,,3,270,1,E Gorham,900,N Paterson
1837,1837,Williamson & S Blair (EB),This stop (#1837) is eastbound on the 601 block of Williamson St farside Blair St (S),43.076016,-89.375229,MMT,CMAD,0,,1,90,1,Williamson,601,S Blair
1841,1841,Aberg & Packers (EB),This stop (#1841) is eastbound on the 2199 block of Aberg Ave farside Packers Ave,43.113323,-89.354835,MMT,CMAD,0,,1,90,0,Aberg,2199,Packers
1843,1843,E Johnson & N First (EB),This stop (#1843) is eastbound on the 1901 block of Johnson St (E) farside First St (N),43.094265,-89.361707,MMT,CMAD,0,,1,90,1,E Johnson,1901,N First
1846,1846,E Washington & N Sixth (WB),This stop (#1846) is westbound on the 2398 block of E Washington Ave farside Sixth St (N),43.098298,-89.351552,MMT,CMAD,0,,1,270,1,E Washington,2398,N Sixth
1848,1848,Milwaukee & Starkweather (WB),This stop (#1848) is westbound on the 2998 block of Milwaukee St farside Starkweather Path,43.099956,-89.338929,MMT,CMAD,0,,1,270,1,Milwaukee,2998,Starkweather
1855,1855,Milwaukee & S Bryan (EB),This stop (#1855) is eastbound on the 3201 block of Milwaukee St farside Bryan St (S),43.099667,-89.335459,MMT,CMAD,0,,1,90,1,Milwaukee,3201,S Bryan
1868,1868,Milwaukee & W Corporate (WB),This stop (#1868) is westbound on the 3698 block of Milwaukee St farside Corporate Dr (W),43.098332,-89.321914,MMT,CMAD,0,,1,270,1,Milwaukee,3698,W Corporate
1877,1877,Aberg & N Sherman (EB),This stop (#1877) is eastbound on the 1701 block of Aberg Ave farside Sherman Ave (N),43.114124,-89.363344,MMT,CMAD,0,,1,90,1,Aberg,1701,N Sherman
1878,1878,Jenifer & S Ingersoll (WB),This stop (#1878) is westbound on the 1100 block of Jenifer St nearside Ingersoll St (S),43.081482,-89.365249,MMT,CMAD,0,,3,270,1,Jenifer,1100,S Ingersoll
1883,1883,E Washington & S Baldwin (EB),This stop (#1883) is eastbound on the 1301 block of E Washington Ave farside Baldwin St (S),43.087382,-89.3658,MMT,CMAD,0,,1,90,1,E Washington,1301,S Baldwin
1886,1886,Milwaukee & Walter (WB),This stop (#1886) is westbound on the 3510 block of Milwaukee St farside Walter St,43.098287,-89.326946,MMT,CMAD,0,,1,270,1,Milwaukee,3510,Walter
1890,1890,Walter & Hargrove (SB),This stop (#1890) is southbound on the 300 block of Walter St farside Hargrove St,43.091353,-89.327851,MMT,CMAD,0,,1,180,1,Walter,300,Hargrove
1892,1892,E Johnson & Fordem (WB),This stop (#1892) is westbound on the 1698 block of Johnson St (E) farside Fordem Ave,43.092789,-89.364524,MMT,CMAD,0,,1,270,1,E Johnson,1698,Fordem
1894,1894,Atwood & Waubesa (WB),This stop (#1894) is westbound on the 2798 block of Atwood Ave farside Waubesa St,43.093996,-89.343913,MMT,CMAD,0,,1,270,1,Atwood,2798,Waubesa
1895,1895,Aberg & Loftsgordan (EB),This stop (#1895) is eastbound on the 2001 block of Aberg Ave farside Loftsgordan Ave,43.114077,-89.357811,MMT,CMAD,0,,1,90,1,Aberg,2001,Loftsgordan
1901,1901,Winnebago & S First (NB),This stop (#1901) is northbound on the 1899 block of Winnebago St farside First St (S),43.090439,-89.356277,MMT,CMAD,0,,1,0,1,Winnebago,1899,S First
1905,1905,Atwood & Lakeland (EB),This stop (#1905) is eastbound on the 3351 block of Atwood Ave farside Lakeland Ave,43.0916,-89.336001,MMT,CMAD,0,,1,90,0,Atwood,3351,Lakeland
1919,1919,Milwaukee & Starkweather (EB),This stop (#1919) is eastbound on the 2999 block of Milwaukee St nearside Starkweather Path,43.099741,-89.338744,MMT,CMAD,0,,3,90,1,Milwaukee,2999,Starkweather
1922,1922,N Sherman & Aberg (SB),This stop (#1922) is southbound on the 1298 block of Sherman Ave (N) farside Aberg Ave,43.113954,-89.36395,MMT,CMAD,0,,1,180,1,N Sherman,1298,Aberg
1923,1923,N Sherman & Commercial (NB),This stop (#1923) is northbound on the 599 block of Sherman Ave (N) nearside Commercial Ave,43.106675,-89.363771,MMT,CMAD,0,,3,0,1,N Sherman,599,Commercial
1927,1927,E Washington & S Livingston (EB),This stop (#1927) is eastbound on the 799 block of E Washington Ave nearside Livingston St (S),43.080805,-89.375127,MMT,CMAD,0,,3,90,1,E Washington,799,S Livingston
1935,1935,Winnebago & Riverside (NB),This stop (#1935) is northbound on the 1625 block of Winnebago St farside Riverside Dr,43.088632,-89.357687,MMT,CMAD,0,,1,0,1,Winnebago,1625,Riverside
1938,1938,E Washington & N Marquette (WB),This stop (#1938) is westbound on the 3050 block of E Washington Ave nearside Marquette St (N),43.104488,-89.342011,MMT,CMAD,0,,3,270,1,E Washington,3050,N Marquette
1944,1944,E Johnson & North (WB),This stop (#1944) is westbound on the 2598 block of Johnson St (E) farside North St,43.103034,-89.350794,MMT,CMAD,0,,1,270,1,E Johnson,2598,North
1949,1949,E Johnson & N Sixth (EB),This stop (#1949) is eastbound on the 2399 block of Johnson St (E) nearside Sixth St (N),43.100287,-89.354069,MMT,CMAD,0,,3,90,1,E Johnson,2399,N Sixth
1959,1959,Jenifer & S Brearly (EB),This stop (#1959) is eastbound on the 1001 block of Jenifer St farside Brearly St (S),43.080193,-89.366695,MMT,CMAD,0,,1,90,1,Jenifer,1001,S Brearly
1963,1963,Atwood & Winnebago (EB),This stop (#1963) is eastbound on the 2001 block of Atwood Ave farside Winnebago St,43.091952,-89.354794,MMT,CMAD,0,,1,90,1,Atwood,2001,Winnebago
1968,1968,N Sherman & Fordem (SB),This stop (#1968) is southbound on the 300 block of Sherman Ave (N) nearside Fordem Ave,43.103193,-89.364132,MMT,VMAP,0,,3,180,1,N Sherman,300,Fordem
1975,1975,Milwaukee & S Marquette (EB),This stop (#1975) is eastbound on the 2899 block of Milwaukee St nearside Marquette St (S),43.099814,-89.34177,MMT,CMAD,0,,3,90,1,Milwaukee,2899,S Marquette
1986,1986,E Johnson & N Seventh (WB),This stop (#1986) is westbound on the 2498 block of Johnson St (E) farside Seventh St (N),43.101745,-89.3525,MMT,CMAD,0,,1,270,1,E Johnson,2498,N Seventh
1996,1996,E Gorham & N Livingston (WB),This stop (#1996) is westbound on the 800 block of Gorham St (E) nearside Livingston St (N),43.084003,-89.378804,MMT,CMAD,0,,3,270,1,E Gorham,800,N Livingston
2007,2007,Observatory & Walnut (EB),This stop (#2007) is eastbound on the 2299 block of Observatory Dr farside Walnut St,43.076436,-89.424388,MMT,UWIS,0,,1,90,1,Observatory,2299,Walnut
2014,2014,Lake Mendota & Lot R (SB),This stop (#2014) is southbound on the 2601 block of Lake Mendota Dr adjacent 800 Block (lot R),43.089239,-89.43376,MMT,UWIS,0,,2,180,1,Lake Mendota,2601,Lot R
2018,2018,Eagle Heights & Lot E (WB),This stop (#2018) is westbound on the 300 block of Eagle Heights Dr adjacent 300 Block (lot E),43.086293,-89.435043,MMT,UWIS,0,,2,270,1,Eagle Heights,300,Lot E
2023,2023,Marsh & Highland (EB),This stop (#2023) is eastbound on the 898 block of Marsh Dr farside Highland Ave,43.0788,-89.429795,MMT,UWIS,0,,1,90,1,Marsh,898,Highland
2026,2026,Eagle Heights & Lot F (WB),This stop (#2026) is westbound on the 400 block of Eagle Heights Dr adjacent 400 Block (lot F),43.086248,-89.436661,MMT,UWIS,0,,2,270,1,Eagle Heights,400,Lot F
2027,2027,University Bay & Lot 60 (NB),This stop (#2027) is northbound on the 1413 block of University Bay Dr adjacent Lot 60 Parking,43.080259,-89.428067,MMT,UWIS,0,,2,0,1,University Bay,1413,Lot 60
2034,2034,Lake Mendota & Eagle Heights (SB),This stop (#2034) is southbound on the 2401 block of Lake Mendota Dr nearside Eagle Heights Dr,43.086445,-89.433772,MMT,UWIS,0,,3,180,1,Lake Mendota,2401,Eagle Heights
2039,2039,Lake Mendota & Lot N (NB),This stop (#2039) is northbound on the 2799 block of Lake Mendota Dr adjacent 600 Block (lot N),43.089158,-89.438057,MMT,UWIS,0,,2,0,1,Lake Mendota,2799,Lot N
2041,2041,Lake Mendota & University Bay (NB),This stop (#2041) is northbound on the 1500 block of Lake Mendota Dr farside University Bay Dr,43.084252,-89.433487,MMT,UWIS,0,,1,0,1,Lake Mendota,1500,University Bay
2048,2048,Lake Mendota & University Bay (SB),This stop (#2048) is southbound on the 1501 block of Lake Mendota Dr nearside University Bay Dr,43.084386,-89.433784,MMT,UWIS,0,,3,180,1,Lake Mendota,1501,University Bay
2050,2050,University Bay & Lot 76 (SB),This stop (#2050) is southbound on the 1412 block of University Bay Dr adjacent Lot 76 Ramp,43.080886,-89.428351,MMT,UWIS,0,,2,180,1,University Bay,1412,Lot 76
2053,2053,Walnut & Observatory (NB),This stop (#2053) is northbound on the 701 block of Walnut St farside Observatory Dr,43.077045,-89.424906,MMT,UWIS,0,,1,0,1,Walnut,701,Observatory
2054,2054,Eagle Heights & Lot M (WB),This stop (#2054) is westbound on the 500 block of Eagle Heights Dr adjacent 500 Block (lot M),43.086668,-89.441612,MMT,UWIS,0,,2,270,1,Eagle Heights,500,Lot M
2061,2061,Lake Mendota & Lot P (NB),This stop (#2061) is northbound on the 2701 block of Lake Mendota Dr adjacent 700 Block (lot P),43.089784,-89.437007,MMT,UWIS,0,,2,0,1,Lake Mendota,2701,Lot P
2070,2070,University & Ridge (WB),This stop (#2070) is westbound on the 2900 block of University Ave farside Ridge St,43.075065,-89.439054,MMT,VSHO,0,,1,270,0,University,2900,Ridge
2071,2071,Lake Mendota & Lot Q (NB),This stop (#2071) is northbound on the 2699 block of Lake Mendota Dr adjacent 800 Block (lot Q),43.090501,-89.435587,MMT,UWIS,0,,2,0,1,Lake Mendota,2699,Lot Q
2076,2076,Marsh & Lot 76 (WB),This stop (#2076) is westbound on the 851 block of Marsh Dr adjacent Lot 76 Ramp,43.079006,-89.429203,MMT,UWIS,0,,2,270,1,Marsh,851,Lot 76
2082,2082,Eagle Heights & Shelter (WB),This stop (#2082) is westbound on the 450 block of Eagle Heights Dr adjacent Brown Shelter,43.086328,-89.438587,MMT,UWIS,0,,2,270,1,Eagle Heights,450,Shelter
2088,2088,Observatory & Walnut (WB),This stop (#2088) is westbound on the 2300 block of Observatory Dr farside Walnut St,43.076759,-89.42577,MMT,UWIS,0,,1,270,1,Observatory,2300,Walnut
2091,2091,Observatory & Highland (EB),This stop (#2091) is eastbound on the 2499 block of Observatory Dr farside Highland Ave,43.076973,-89.428499,MMT,UWIS,0,,1,90,1,Observatory,2499,Highland
2094,2094,Walnut & Observatory (SB),This stop (#2094) is southbound on the 698 block of Walnut St farside Observatory Dr,43.076141,-89.425239,MMT,UWIS,0,,1,180,1,Walnut,698,Observatory
2100,2100,Sheboygan & Crosswalk (WB),This stop (#2100) is westbound on the 4802 block of Sheboygan Ave adjacent Pedestrian Crosswalk,43.072931,-89.459792,MMT,CMAD,0,,2,270,1,Sheboygan,4802,Crosswalk
2101,2101,Sheboygan & Crosswalk (EB),This stop (#2101) is eastbound on the 4801 block of Sheboygan Ave adjacent Pedestrian Crosswalk,43.072707,-89.459545,MMT,CMAD,0,,2,90,1,Sheboygan,4801,Crosswalk
2105,2105,Odana & Frederick (EB),This stop (#2105) is eastbound on the 4001 block of Odana Rd nearside Frederick Ln,43.050928,-89.444318,MMT,CMAD,0,,3,90,1,Odana,4001,Frederick
2112,2112,Monroe & Glenway (WB),This stop (#2112) is westbound on the 3500 block of Monroe St farside Glenway St,43.052792,-89.435692,MMT,CMAD,0,,1,270,1,Monroe,3500,Glenway
2114,2114,Odana & Anthony (WB),This stop (#2114) is westbound on the 4216 block of Odana Rd nearside Anthony Ln,43.050812,-89.446761,MMT,CMAD,0,,3,270,1,Odana,4216,Anthony
2125,2125,Highland & Observatory (NB),This stop (#2125) is northbound on the 899 block of Highland Ave farside Observatory Dr,43.077349,-89.428844,MMT,UWIS,0,,1,0,1,Highland,899,Observatory
2131,2131,University Bay & University (NB),This stop (#2131) is northbound on the 601 block of University Bay Dr farside University Ave,43.074207,-89.433585,MMT,VSHO,0,,1,0,1,University Bay,601,University
2133,2133,Mineral Point & S Owen (EB),This stop (#2133) is eastbound on the 4299 block of Mineral Point Rd farside Owen Dr (S),43.060632,-89.447048,MMT,CMAD,0,,1,90,1,Mineral Point,4299,S Owen
2134,2134,Mineral Point & Toepfer (WB),This stop (#2134) is westbound on the 4000 block of Mineral Point Rd nearside Toepfer Ave,43.060857,-89.44179,MMT,CMAD,0,,3,270,1,Mineral Point,4000,Toepfer
2137,2137,Speedway & Hillcrest (EB),This stop (#2137) is eastbound on the 3601 block of Speedway Rd nearside Hillcrest Dr,43.064287,-89.433768,MMT,CMAD,0,,3,90,1,Speedway,3601,Hillcrest
2145,2145,Observatory & Babcock (EB),This stop (#2145) is eastbound on the 1601 block of Observatory Dr nearside Babcock Dr,43.076319,-89.412882,MMT,UWIS,0,,3,90,1,Observatory,1601,Babcock
2146,2146,University & Forest (WB),This stop (#2146) is westbound on the 2100 block of University Ave farside Forest St,43.072801,-89.421956,MMT,CMAD,0,,1,270,1,University,2100,Forest
2148,2148,S Segoe & Waukesha (SB),This stop (#2148) is southbound on the 98 block of Segoe Rd (S) nearside Waukesha St,43.067426,-89.454827,MMT,CMAD,0,,3,180,1,S Segoe,98,Waukesha
2160,2160,Mineral Point & S Whitney (WB),This stop (#2160) is westbound on the 5400 block of Mineral Point Rd farside Whitney Way (S),43.061046,-89.47261,MMT,CMAD,0,,1,270,1,Mineral Point,5400,S Whitney
2161,2161,Tokay & Hilltop (EB),This stop (#2161) is eastbound on the 4801 block of Tokay Blvd nearside Hilltop Dr,43.05345,-89.45877,MMT,CMAD,0,,3,90,1,Tokay,4801,Hilltop
2164,2164,Regent & N Allen (WB),This stop (#2164) is westbound on the 2200 block of Regent St farside Allen St (N),43.06803,-89.424141,MMT,CMAD,0,,1,270,1,Regent,2200,N Allen
2171,2171,N Franklin & University (NB),This stop (#2171) is northbound on the 699 block of Franklin Ave (N) nearside University Ave,43.073965,-89.436091,MMT,CMAD,0,,3,0,1,N Franklin,699,University
2175,2175,Sheboygan & Eau Claire (EB),This stop (#2175) is eastbound on the 4999 block of Sheboygan Ave farside Eau Claire Ave (N),43.072912,-89.463496,MMT,CMAD,0,,1,90,1,Sheboygan,4999,Eau Claire
2177,2177,Kendall & Ridge (EB),This stop (#2177) is eastbound on the 2899 block of Kendall Ave farside Ridge St,43.07127,-89.43846,MMT,CMAD,0,,1,90,1,Kendall,2899,Ridge
2182,2182,Tokay & S Segoe (WB),This stop (#2182) is westbound on the 5100 block of Tokay Blvd farside Segoe Rd (S),43.053797,-89.465842,MMT,CMAD,0,,1,270,1,Tokay,5100,S Segoe
2184,2184,Sheboygan & N Segoe (WB),This stop (#2184) is westbound on the 4700 block of Sheboygan Ave farside Segoe Rd (N),43.073101,-89.457163,MMT,CMAD,0,,1,270,1,Sheboygan,4700,N Segoe
2191,2191,University & N Midvale (EB),This stop (#2191) is eastbound on the 4399 block of University Ave farside Midvale Blvd (N),43.075108,-89.450497,MMT,CMAD,0,,1,90,1,University,4399,N Midvale
2192,2192,University & Walnut (WB),This stop (#2192) is westbound on the 2300 block of University Ave farside Walnut St,43.072425,-89.425511,MMT,CMAD,0,,1,270,1,University,2300,Walnut
2193,2193,University & Spring Harbor (NB),This stop (#2193) is northbound on the 5300 block of University Ave farside Spring Harbor Dr,43.080312,-89.472636,MMT,CMAD,0,,1,0,1,University,5300,Spring Harbor
2195,2195,Observatory & Elm (EB),This stop (#2195) is eastbound on the 1801 block of Observatory Dr nearside Elm Dr,43.076347,-89.416104,MMT,UWIS,0,,3,90,1,Observatory,1801,Elm
2197,2197,University & Norman (NB),This stop (#2197) is northbound on the 5498 block of University Ave nearside Norman Way,43.082424,-89.475082,MMT,CMAD,0,,3,0,1,University,5498,Norman
2200,2200,University & N Midvale (WB),This stop (#2200) is westbound on the 4400 block of University Ave farside Midvale Blvd (N),43.07552,-89.451609,MMT,VSHO,0,,1,270,1,University,4400,N Midvale
2202,2202,Tokay & Wedgewood (WB),This stop (#2202) is westbound on the 5000 block of Tokay Blvd farside Wedgewood Way,43.053815,-89.463916,MMT,CMAD,0,,1,270,1,Tokay,5000,Wedgewood
2204,2204,Bluff & N Blackhawk (WB),This stop (#2204) is westbound on the 3498 block of Bluff St nearside Blackhawk Ave (N),43.069594,-89.446138,MMT,CMAD,0,,3,270,1,Bluff,3498,N Blackhawk
2205,2205,Old Middleton & Gettle (EB),This stop (#2205) is eastbound on the 5421 block of Old Middleton Rd nearside Gettle Ave,43.074143,-89.473804,MMT,CMAD,0,,3,90,1,Old Middleton,5421,Gettle
2212,2212,Odana & Frederick (WB),This stop (#2212) is westbound on the 3998 block of Odana Rd nearside Frederick Ln,43.051161,-89.444145,MMT,CMAD,0,,3,270,0,Odana,3998,Frederick
2213,2213,S Midvale & Odana (NB),This stop (#2213) is northbound on the 699 block of Midvale Blvd (S) farside Odana Rd,43.050399,-89.450858,MMT,CMAD,0,,1,0,1,S Midvale,699,Odana
2218,2218,Highland & University Bay (SB),This stop (#2218) is southbound on the 1698 block of Highland Ave nearside University Bay Dr,43.076096,-89.434301,MMT,UWIS,0,,3,180,0,Highland,1698,University Bay
2220,2220,Old Middleton & N Whitney (WB),This stop (#2220) is westbound on the 5100 block of Old Middleton Rd farside Whitney Way (N),43.074128,-89.467928,MMT,CMAD,0,,1,270,1,Old Middleton,5100,N Whitney
2222,2222,Tokay & Charles (WB),This stop (#2222) is westbound on the 4620 block of Tokay Blvd nearside Charles Ln,43.053764,-89.454673,MMT,CMAD,0,,3,270,1,Tokay,4620,Charles
2226,2226,Tokay & U W Health (WB),This stop (#2226) is westbound on the 5398 block of Tokay Blvd adjacent U W Health,43.053795,-89.470395,MMT,CMAD,0,,2,270,1,Tokay,5398,U W Health
2230,2230,University & Flambeau (SB),This stop (#2230) is southbound on the 5199 block of University Ave farside Flambeau Rd,43.077404,-89.469794,MMT,CMAD,0,,1,180,1,University,5199,Flambeau
2231,2231,Speedway & S Franklin (EB),This stop (#2231) is eastbound on the 3699 block of Speedway Rd nearside Franklin Ave (S),43.06246,-89.436187,MMT,CMAD,0,,3,90,1,Speedway,3699,S Franklin
2236,2236,Old Middleton & Gettle (WB),This stop (#2236) is westbound on the 5418 block of Old Middleton Rd farside Gettle Ave,43.074358,-89.473804,MMT,CMAD,0,,1,270,1,Old Middleton,5418,Gettle
2240,2240,Marsh & Lot 60 (WB),This stop (#2240) is westbound on the 801 block of Marsh Dr adjacent Lot 60,43.078988,-89.426659,MMT,UWIS,0,,2,270,1,Marsh,801,Lot 60
2249,2249,S Whitney & South Hill (NB),This stop (#2249) is northbound on the 299 block of Whitney Way (S) farside South Hill Dr,43.06409,-89.471242,MMT,CMAD,0,,1,0,1,S Whitney,299,South Hill
2250,2250,Mineral Point & S Segoe (WB),This stop (#2250) is westbound on the 4800 block of Mineral Point Rd farside Segoe Rd (S),43.060997,-89.458083,MMT,CMAD,0,,1,270,1,Mineral Point,4800,S Segoe
2255,2255,Monroe & Stockton (EB),This stop (#2255) is eastbound on the 1701 block of Monroe St opposite Stockton Ct,43.065881,-89.415451,MMT,CMAD,0,,4,90,1,Monroe,1701,Stockton
2263,2263,Mineral Point & S Midvale (EB),This stop (#2263) is eastbound on the 4399 block of Mineral Point Rd farside Midvale Blvd (S),43.060712,-89.450628,MMT,CMAD,0,,1,90,1,Mineral Point,4399,S Midvale
2264,2264,Bluff & Crosswalk (WB),This stop (#2264) is westbound on the 3200 block of Bluff St adjacent Pedestrian Crosswalk,43.070311,-89.442139,MMT,CMAD,0,,2,270,1,Bluff,3200,Crosswalk
2265,2265,Odana & Huron (EB),This stop (#2265) is eastbound on the 3707 block of Odana Rd nearside Huron Hl,43.051269,-89.439554,MMT,CMAD,0,,3,90,1,Odana,3707,Huron
2266,2266,University & N Blackhawk (WB),This stop (#2266) is westbound on the 3500 block of University Ave farside Blackhawk Ave (N),43.07544,-89.447041,MMT,VSHO,0,,1,270,1,University,3500,N Blackhawk
2267,2267,Observatory & Colwood (EB),This stop (#2267) is eastbound on the 2001 block of Observatory Dr nearside Colwood Dr,43.076382,-89.420425,MMT,UWIS,0,,3,90,1,Observatory,2001,Colwood
2274,2274,Tokay & Hilltop (WB),This stop (#2274) is westbound on the 4798 block of Tokay Blvd nearside Hilltop Dr,43.053772,-89.4584,MMT,CMAD,0,,3,270,1,Tokay,4798,Hilltop
2282,2282,Sheboygan & N Whitney (WB),This stop (#2282) is westbound on the 5098 block of Sheboygan Ave nearside Whitney Way (N),43.073197,-89.467211,MMT,CMAD,0,,3,270,1,Sheboygan,5098,N Whitney
2312,2312,S Whitney & Tokay (SB),This stop (#2312) is southbound on the 600 block of Whitney Way (S) farside Tokay Blvd,43.053346,-89.47374,MMT,CMAD,0,,1,180,1,S Whitney,600,Tokay
2320,2320,Mineral Point & Racine (WB),This stop (#2320) is westbound on the 5006 block of Mineral Point Rd nearside Racine Rd,43.061022,-89.465303,MMT,CMAD,0,,3,270,1,Mineral Point,5006,Racine
2323,2323,Tokay & S Segoe (EB),This stop (#2323) is eastbound on the 5101 block of Tokay Blvd nearside Segoe Rd (S),43.053483,-89.466002,MMT,CMAD,0,,3,90,1,Tokay,5101,S Segoe
2325,2325,Mineral Point & Westmorland (EB),This stop (#2325) is eastbound on the 4101 block of Mineral Point Rd nearside Westmorland Blvd,43.060633,-89.443889,MMT,CMAD,0,,3,90,1,Mineral Point,4101,Westmorland
2338,2338,S Segoe & Regent (SB),This stop (#2338) is southbound on the 2 block of Segoe Rd (S) farside Regent St,43.068733,-89.454754,MMT,CMAD,0,,1,180,1,S Segoe,2,Regent
2346,2346,S Midvale & Midvale School (SB),This stop (#2346) is southbound on the 498 block of Midvale Blvd (S) opposite Midvale School,43.057265,-89.451354,MMT,CMAD,0,,4,180,0,S Midvale,498,Midvale School
2349,2349,Highland & Marsh (EB),This stop (#2349) is eastbound on the 999 block of Highland Ave farside Marsh Dr,43.078388,-89.430227,MMT,UWIS,0,,1,90,1,Highland,999,Marsh
2357,2357,Odana & Anthony (EB),This stop (#2357) is eastbound on the 4219 block of Odana Rd nearside Anthony Ln,43.05057,-89.447069,MMT,CMAD,0,,3,90,1,Odana,4219,Anthony
2374,2374,Speedway & S Franklin (WB),This stop (#2374) is westbound on the 3698 block of Speedway Rd nearside Franklin Ave (S),43.062845,-89.436064,MMT,CMAD,0,,3,270,1,Speedway,3698,S Franklin
2376,2376,Sheboygan & Eau Claire (WB),This stop (#2376) is westbound on the 4998 block of Sheboygan Ave nearside Eau Claire Ave (N),43.073082,-89.46373,MMT,CMAD,0,,3,270,1,Sheboygan,4998,Eau Claire
2377,2377,Regent & Highland (EB),This stop (#2377) is eastbound on the 2399 block of Regent St farside Highland Ave,43.067841,-89.42777,MMT,CMAD,0,,1,90,1,Regent,2399,Highland
2388,2388,Monroe & Knickerbocker (WB),This stop (#2388) is westbound on the 2700 block of Monroe St farside Knickerbocker St,43.057036,-89.429336,MMT,CMAD,0,,1,270,1,Monroe,2700,Knickerbocker
2389,2389,Monroe & Leonard (EB),This stop (#2389) is eastbound on the 2251 block of Monroe St farside Leonard St,43.060885,-89.423091,MMT,CMAD,0,,1,90,1,Monroe,2251,Leonard
2392,2392,University & Capital (SB),This stop (#2392) is southbound on the 5601 block of University Ave nearside Capital Ave,43.08442,-89.477948,MMT,CMAD,0,,3,180,1,University,5601,Capital
2393,2393,Highland & V A Hospital (NB),This stop (#2393) is northbound on the 701 block of Highland Ave opposite Veterans Hospital,43.073822,-89.42861,MMT,UWIS,0,,4,0,1,Highland,701,V A Hospital
2395,2395,Sheboygan & N Segoe (EB),This stop (#2395) is eastbound on the 4701 block of Sheboygan Ave nearside Segoe Rd (N),43.072904,-89.456953,MMT,CMAD,0,,3,90,1,Sheboygan,4701,N Segoe
2397,2397,Sheboygan & N Whitney (EB),This stop (#2397) is eastbound on the 5099 block of Sheboygan Ave farside Whitney Way (N),43.072937,-89.467125,MMT,CMAD,0,,1,90,1,Sheboygan,5099,N Whitney
2398,2398,N Whitney & University (SB),This stop (#2398) is southbound on the 700 block of Whitney Way (N) farside University Ave,43.075999,-89.467966,MMT,CMAD,0,,1,180,1,N Whitney,700,University
2401,2401,S Whitney & Mineral Point (NB),This stop (#2401) is northbound on the 399 block of Whitney Way (S) farside Mineral Point Rd,43.061234,-89.471956,MMT,CMAD,0,,1,0,1,S Whitney,399,Mineral Point
2404,2404,University & Spring Harbor (SB),This stop (#2404) is southbound on the 5301 block of University Ave farside Spring Harbor Dr,43.079569,-89.472339,MMT,CMAD,0,,1,180,1,University,5301,Spring Harbor
2417,2417,Tokay & Wedgewood (EB),This stop (#2417) is eastbound on the 5001 block of Tokay Blvd nearside Wedgewood Way,43.053484,-89.463731,MMT,CMAD,0,,3,90,1,Tokay,5001,Wedgewood
2419,2419,N Eau Claire & Sheboygan (NB),This stop (#2419) is northbound on the 501 block of Eau Claire Ave (N) farside Sheboygan Ave,43.073225,-89.464039,MMT,CMAD,0,,1,0,1,N Eau Claire,501,Sheboygan
2433,2433,Odana & S Midvale (EB),This stop (#2433) is eastbound on the 4399 block of Odana Rd farside Midvale Blvd (S),43.050077,-89.450611,MMT,CMAD,0,,1,90,1,Odana,4399,S Midvale
2442,2442,Observatory & Colwood (WB),This stop (#2442) is westbound on the 2001 block of Observatory Dr farside Colwood Dr,43.076606,-89.420808,MMT,UWIS,0,,1,270,1,Observatory,2001,Colwood
2443,2443,University & Grand (EB),This stop (#2443) is eastbound on the 2599 block of University Ave farside Grand Ave,43.072497,-89.430856,MMT,CMAD,0,,1,90,1,University,2599,Grand
2467,2467,University & University Bay (EB),This stop (#2467) is eastbound on the 2699 block of University Ave farside University Bay Dr,43.073204,-89.433449,MMT,CMAD,0,,1,90,1,University,2699,University Bay
2470,2470,Speedway & Glenway (WB),This stop (#2470) is westbound on the 3798 block of Speedway Rd nearside Glenway St,43.061037,-89.438532,MMT,CMAD,0,,3,270,1,Speedway,3798,Glenway
2473,2473,Highland & Waisman (NB),This stop (#2473) is northbound on the 1501 block of Highland Ave opposite Waisman Center,43.07811,-89.433141,MMT,UWIS,0,,4,0,1,Highland,1501,Waisman
2476,2476,S Midvale & Tokay (SB),This stop (#2476) is southbound on the 600 block of Midvale Blvd (S) farside Tokay Blvd,43.053237,-89.451365,MMT,CMAD,0,,1,180,1,S Midvale,600,Tokay
2487,2487,Regent & S Midvale (EB),This stop (#2487) is eastbound on the 4399 block of Regent St farside Midvale Blvd (S),43.068036,-89.450705,MMT,CMAD,0,,1,90,1,Regent,4399,S Midvale
2491,2491,S Segoe & Richland (EB),This stop (#2491) is eastbound on the 233 block of Segoe Rd (S) nearside Richland Ln,43.063674,-89.456393,MMT,CMAD,0,,3,90,1,S Segoe,233,Richland
2494,2494,N Franklin & University (SB),This stop (#2494) is southbound on the 698 block of Franklin Ave (N) farside University Ave,43.073902,-89.436387,MMT,CMAD,0,,1,180,1,N Franklin,698,University
2496,2496,Speedway & Hillcrest (WB),This stop (#2496) is westbound on the 3598 block of Speedway Rd nearside Hillcrest Dr,43.064502,-89.433867,MMT,CMAD,0,,3,270,1,Speedway,3598,Hillcrest
2497,2497,Monroe & Commonwealth (EB),This stop (#2497) is eastbound on the 2499 block of Monroe St farside Commonwealth Ave,43.058405,-89.426868,MMT,CMAD,0,,1,90,1,Monroe,2499,Commonwealth
2502,2502,Walnut & G Pinchot (SB),This stop (#2502) is southbound on the 500 block of Walnut St farside Gifford Pinchot Dr,43.074314,-89.425252,MMT,UWIS,0,,1,180,1,Walnut,500,G Pinchot
2505,2505,Monroe & Glenway (EB),This stop (#2505) is eastbound on the 3499 block of Monroe St farside Glenway St,43.053042,-89.434877,MMT,CMAD,0,,1,90,1,Monroe,3499,Glenway
2509,2509,N Whitney & Regent (NB),This stop (#2509) is northbound on the 1 block of Whitney Way (N) farside Regent St,43.06838,-89.468171,MMT,CMAD,0,,1,0,1,N Whitney,1,Regent
2511,2511,Mineral Point & S Whitney (EB),This stop (#2511) is eastbound on the 5399 block of Mineral Point Rd farside Whitney Way (S),43.060715,-89.471634,MMT,CMAD,0,,1,90,1,Mineral Point,5399,S Whitney
2519,2519,Mineral Point & Berwyn (EB),This stop (#2519) is eastbound on the 4901 block of Mineral Point Rd nearside Berwyn Dr,43.060799,-89.461292,MMT,CMAD,0,,3,90,1,Mineral Point,4901,Berwyn
2522,2522,S Whitney & Odana (SB),This stop (#2522) is southbound on the 700 block of Whitney Way (S) farside Odana Rd,43.049676,-89.473749,MMT,CMAD,0,,1,180,1,S Whitney,700,Odana
2524,2524,Monroe & Leonard (WB),This stop (#2524) is westbound on the 2300 block of Monroe St farside Leonard St,43.060679,-89.423844,MMT,CMAD,0,,1,270,1,Monroe,2300,Leonard
2532,2532,Regent & Meadow (WB),This stop (#2532) is westbound on the 4332 block of Regent St farside Meadow Ln (N),43.068215,-89.450334,MMT,CMAD,0,,1,270,1,Regent,4332,Meadow
2549,2549,S Whitney & Tokay (NB),This stop (#2549) is northbound on the 601 block of Whitney Way (S) nearside Tokay Blvd,43.053481,-89.473234,MMT,CMAD,0,,3,0,1,S Whitney,601,Tokay
2561,2561,University & Highland (EB),This stop (#2561) is eastbound on the 2499 block of University Ave farside Highland Ave,43.071996,-89.428227,MMT,CMAD,0,,1,90,1,University,2499,Highland
2562,2562,Regent & Price (WB),This stop (#2562) is westbound on the 4498 block of Regent St nearside Price Pl,43.06859,-89.452704,MMT,CMAD,0,,3,270,0,Regent,4498,Price
2566,2566,Monroe & S Prospect (WB),This stop (#2566) is westbound on the 2000 block of Monroe St farside Prospect Ave (S),43.063625,-89.419302,MMT,CMAD,0,,1,270,1,Monroe,2000,S Prospect
2576,2576,University Bay & Marshall (SB),This stop (#2576) is southbound on the 800 block of University Bay Dr nearside Marshall Ct,43.0746,-89.433906,MMT,VSHO,0,,3,180,1,University Bay,800,Marshall
2590,2590,S Midvale & Mineral Point (SB),This stop (#2590) is southbound on the 400 block of Midvale Blvd (S) farside Mineral Point Rd,43.06056,-89.451356,MMT,CMAD,0,,1,180,1,S Midvale,400,Mineral Point
2595,2595,University & Shorewood (EB),This stop (#2595) is eastbound on the 3301 block of University Ave nearside Shorewood Blvd,43.075065,-89.444016,MMT,CMAD,0,,3,90,1,University,3301,Shorewood
2605,2605,University & Walnut (EB),This stop (#2605) is eastbound on the 2217 block of University Ave farside Walnut St,43.072273,-89.424733,MMT,CMAD,0,,1,90,1,University,2217,Walnut
2608,2608,Monroe & Spooner (WB),This stop (#2608) is westbound on the 1800 block of Monroe St farside Spooner St (S),43.065308,-89.416759,MMT,CMAD,0,,1,270,1,Monroe,1800,Spooner
2615,2615,Tokay & Charles (EB),This stop (#2615) is eastbound on the 4621 block of Tokay Blvd nearside Charles Ln,43.053451,-89.455055,MMT,CMAD,0,,3,90,1,Tokay,4621,Charles
2617,2617,Old Middleton & N Rosa (EB),This stop (#2617) is eastbound on the 5599 block of Old Middleton Rd farside Rosa Rd (N),43.07467,-89.477656,MMT,CMAD,0,,1,90,1,Old Middleton,5599,N Rosa
2620,2620,Highland & Marsh (WB),This stop (#2620) is westbound on the 1000 block of Highland Ave farside Marsh Dr,43.078853,-89.430783,MMT,UWIS,0,,1,270,1,Highland,1000,Marsh
2628,2628,S Segoe & Richland (WB),This stop (#2628) is westbound on the 230 block of Segoe Rd (S) farside Richland Ln,43.064041,-89.456689,MMT,CMAD,0,,1,270,1,S Segoe,230,Richland
2637,2637,Regent & S Segoe (EB),This stop (#2637) is eastbound on the 4599 block of Regent St farside Segoe Rd (S),43.068706,-89.454013,MMT,CMAD,0,,1,90,1,Regent,4599,S Segoe
2641,2641,Regent & Price (EB),This stop (#2641) is eastbound on the 4499 block of Regent St farside Price Pl,43.068259,-89.452741,MMT,CMAD,0,,1,90,1,Regent,4499,Price
2643,2643,Highland & University (NB),This stop (#2643) is northbound on the 501 block of Highland Ave farside University Ave,43.072479,-89.428535,MMT,CMAD,0,,1,0,1,Highland,501,University
2655,2655,S Midvale & Tokay (NB),This stop (#2655) is northbound on the 599 block of Midvale Blvd (S) farside Tokay Blvd,43.05389,-89.450872,MMT,CMAD,0,,1,0,1,S Midvale,599,Tokay
2659,2659,Speedway & Glenway (EB),This stop (#2659) is eastbound on the 3799 block of Speedway Rd farside Glenway St,43.061081,-89.438051,MMT,CMAD,0,,1,90,1,Speedway,3799,Glenway
2665,2665,S Whitney & Odana (NB),This stop (#2665) is northbound on the 699 block of Whitney Way (S) farside Odana Rd,43.050544,-89.473232,MMT,CMAD,0,,1,0,1,S Whitney,699,Odana
2670,2670,S Whitney & Mineral Point (SB),This stop (#2670) is southbound on the 400 block of Whitney Way (S) farside Mineral Point Rd,43.060536,-89.472313,MMT,CMAD,0,,1,180,1,S Whitney,400,Mineral Point
2672,2672,Speedway & Highland (WB),This stop (#2672) is westbound on the 2 block of Speedway Rd farside Highland Ave,43.06768,-89.429584,MMT,CMAD,0,,1,270,1,Speedway,2,Highland
2684,2684,S Whitney & South Hill (SB),This stop (#2684) is southbound on the 300 block of Whitney Way (S) farside South Hill Dr,43.063786,-89.472032,MMT,CMAD,0,,1,180,1,S Whitney,300,South Hill
2691,2691,Regent & Spooner (EB),This stop (#2691) is eastbound on the 1799 block of Regent St farside Spooner St (S),43.067725,-89.416364,MMT,CMAD,0,,1,90,1,Regent,1799,Spooner
2693,2693,Regent & S Owen (EB),This stop (#2693) is eastbound on the 4301 block of Regent St nearside Owen Dr (S),43.067956,-89.447619,MMT,CMAD,0,,3,90,1,Regent,4301,S Owen
2700,2700,Regent & N Prospect (WB),This stop (#2700) is westbound on the 1998 block of Regent St nearside Prospect Ave (N),43.067994,-89.42103,MMT,CMAD,0,,3,270,1,Regent,1998,N Prospect
2702,2702,Regent & Vista (WB),This stop (#2702) is westbound on the 2300 block of Regent St nearside Vista Rd,43.068056,-89.426437,MMT,CMAD,0,,3,270,1,Regent,2300,Vista
2709,2709,S Midvale & Midvale School (NB),This stop (#2709) is northbound on the 499 block of Midvale Blvd (S) adjacent Midvale School,43.057561,-89.450848,MMT,CMAD,0,,2,0,1,S Midvale,499,Midvale School
2711,2711,S Segoe & Mineral Point (NB),This stop (#2711) is northbound on the 399 block of Segoe Rd (S) farside Mineral Point Rd,43.06114,-89.457293,MMT,CMAD,0,,1,0,1,S Segoe,399,Mineral Point
2712,2712,University & Shorewood (WB),This stop (#2712) is westbound on the 3300 block of University Ave farside Shorewood Blvd,43.075414,-89.444115,MMT,VSHO,0,,1,270,1,University,3300,Shorewood
2717,2717,University & Forest (EB),This stop (#2717) is eastbound on the 2099 block of University Ave farside Forest St,43.072703,-89.421178,MMT,CMAD,0,,1,90,1,University,2099,Forest
2718,2718,Old Middleton & N Rosa (WB),This stop (#2718) is westbound on the 5598 block of Old Middleton Rd nearside Rosa Rd (N),43.074921,-89.477595,MMT,CMAD,0,,3,270,1,Old Middleton,5598,N Rosa
2725,2725,Bluff & Crosswalk (EB),This stop (#2725) is eastbound on the 3201 block of Bluff St adjacent Pedestrian Crosswalk,43.070329,-89.441558,MMT,CMAD,0,,2,90,1,Bluff,3201,Crosswalk
2734,2734,Mineral Point & S Owen (WB),This stop (#2734) is westbound on the 4298 block of Mineral Point Rd nearside Owen Dr (S),43.060847,-89.447233,MMT,CMAD,0,,3,270,1,Mineral Point,4298,S Owen
2737,2737,Mineral Point & Toepfer (EB),This stop (#2737) is eastbound on the 3999 block of Mineral Point Rd farside Toepfer Ave,43.060642,-89.441494,MMT,CMAD,0,,1,90,1,Mineral Point,3999,Toepfer
2742,2742,Bluff & Ridge (WB),This stop (#2742) is westbound on the 2900 block of Bluff St farside Ridge St,43.071377,-89.439275,MMT,CMAD,0,,1,270,1,Bluff,2900,Ridge
2753,2753,Monroe & Chapman (EB),This stop (#2753) is eastbound on the 3099 block of Monroe St farside Chapman St,43.055128,-89.431743,MMT,CMAD,0,,1,90,1,Monroe,3099,Chapman
2755,2755,University & N Blackhawk (EB),This stop (#2755) is eastbound on the 3501 block of University Ave nearside Blackhawk Ave (N),43.075091,-89.446856,MMT,CMAD,0,,3,90,1,University,3501,N Blackhawk
2762,2762,Regent & N Owen (WB),This stop (#2762) is westbound on the 4298 block of Regent St nearside Owen Dr (N),43.068171,-89.447236,MMT,CMAD,0,,3,270,1,Regent,4298,N Owen
2770,2770,Highland & Waisman (SB),This stop (#2770) is southbound on the 1500 block of Highland Ave adjacent Waisman Center,43.078226,-89.433511,MMT,UWIS,0,,2,180,1,Highland,1500,Waisman
2773,2773,Regent & Vista (EB),This stop (#2773) is eastbound on the 2299 block of Regent St farside Vista Rd,43.067824,-89.426054,MMT,CMAD,0,,1,90,1,Regent,2299,Vista
2775,2775,Bluff & N Blackhawk (EB),This stop (#2775) is eastbound on the 3499 block of Bluff St farside Blackhawk Ave (N),43.069379,-89.445953,MMT,CMAD,0,,1,90,1,Bluff,3499,N Blackhawk
2778,2778,Odana & S Whitney (WB),This stop (#2778) is westbound on the 5500 block of Odana Rd farside Whitney Way (S),43.050105,-89.474009,MMT,CMAD,0,,1,270,1,Odana,5500,S Whitney
2787,2787,Old Middleton & N Whitney (EB),This stop (#2787) is eastbound on the 5101 block of Old Middleton Rd nearside Whitney Way (N),43.073886,-89.468088,MMT,CMAD,0,,3,90,1,Old Middleton,5101,N Whitney
2790,2790,University & N Whitney (WB),This stop (#2790) is westbound on the 5100 block of University Ave farside Whitney Way (N),43.076572,-89.467794,MMT,CMAD,0,,1,270,1,University,5100,N Whitney
2793,2793,Mineral Point & S Rosa (EB),This stop (#2793) is eastbound on the 5699 block of Mineral Point Rd farside Rosa Rd (S),43.060677,-89.477991,MMT,CMAD,0,,1,90,1,Mineral Point,5699,S Rosa
2798,2798,S Whitney & Regent (SB),This stop (#2798) is southbound on the 2 block of Whitney Way (S) farside Regent St,43.067735,-89.468665,MMT,CMAD,0,,1,180,1,S Whitney,2,Regent
2806,2806,University & Princeton (WB),This stop (#2806) is westbound on the 1900 block of University Ave farside Princeton Ave,43.073321,-89.418215,MMT,CMAD,0,,1,270,1,University,1900,Princeton
2820,2820,University & University Bay (WB),This stop (#2820) is westbound on the 2698 block of University Ave nearside University Bay Dr,43.073607,-89.433498,MMT,VSHO,0,,3,270,1,University,2698,University Bay
2822,2822,Highland & V A Hospital (SB),This stop (#2822) is southbound on the 700 block of Highland Ave adjacent Veterans Hospital,43.074458,-89.428968,MMT,UWIS,0,,2,180,1,Highland,700,V A Hospital
2829,2829,Mineral Point & Racine (EB),This stop (#2829) is eastbound on the 5005 block of Mineral Point Rd farside Racine Rd,43.060807,-89.465118,MMT,CMAD,0,,1,90,1,Mineral Point,5005,Racine
2836,2836,Monroe & Chapman (WB),This stop (#2836) is westbound on the 3100 block of Monroe St farside Chapman St,43.05494,-89.432471,MMT,CMAD,0,,1,270,1,Monroe,3100,Chapman
2844,2844,Highland & University (SB),This stop (#2844) is southbound on the 400 block of Highland Ave farside University Ave,43.071563,-89.428711,MMT,CMAD,0,,1,180,1,Highland,400,University
2846,2846,N Segoe & University (SB),This stop (#2846) is southbound on the 798 block of Segoe Rd (N) farside University Ave,43.074973,-89.457164,MMT,CMAD,0,,1,180,1,N Segoe,798,University
2850,2850,Regent & Spooner (WB),This stop (#2850) is westbound on the 1800 block of Regent St farside Spooner St (N),43.067958,-89.417191,MMT,CMAD,0,,1,270,1,Regent,1800,Spooner
2856,2856,Monroe & Commonwealth (WB),This stop (#2856) is westbound on the 2500 block of Monroe St farside Commonwealth Ave,43.058173,-89.427621,MMT,CMAD,0,,1,270,1,Monroe,2500,Commonwealth
2867,2867,University & Flambeau (NB),This stop (#2867) is northbound on the 5200 block of University Ave farside Flambeau Rd,43.078245,-89.470276,MMT,CMAD,0,,1,0,1,University,5200,Flambeau
2881,2881,University Bay & Picnic Point (EB),This stop (#2881) is eastbound on the 1448 block of University Bay Dr opposite Picnic Point,43.084225,-89.429092,MMT,UWIS,0,,4,90,1,University Bay,1448,Picnic Point
2883,2883,Monroe & Knickerbocker (EB),This stop (#2883) is eastbound on the 2701 block of Monroe St nearside Knickerbocker St,43.057053,-89.428855,MMT,CMAD,0,,3,90,1,Monroe,2701,Knickerbocker
2885,2885,Monroe & Van Buren (EB),This stop (#2885) is eastbound on the 1999 block of Monroe St farside Van Buren St,43.063983,-89.418327,MMT,CMAD,0,,1,90,1,Monroe,1999,Van Buren
2890,2890,Mineral Point & Westmorland (WB),This stop (#2890) is westbound on the 4098 block of Mineral Point Rd nearside Westmorland Blvd,43.060848,-89.443506,MMT,CMAD,0,,3,270,1,Mineral Point,4098,Westmorland
2892,2892,University & Norman (SB),This stop (#2892) is southbound on the 5499 block of University Ave farside Norman Way,43.0822,-89.475316,MMT,CMAD,0,,1,180,1,University,5499,Norman
2899,2899,Regent & S Allen (EB),This stop (#2899) is eastbound on the 2199 block of Regent St farside Allen St (S),43.067806,-89.423388,MMT,CMAD,0,,1,90,1,Regent,2199,S Allen
2901,2901,S Segoe & Waukesha (NB),This stop (#2901) is northbound on the 101 block of Segoe Rd (S) nearside Waukesha St,43.06731,-89.454284,MMT,CMAD,0,,3,0,1,S Segoe,101,Waukesha
2910,2910,Odana & Huron (WB),This stop (#2910) is westbound on the 3698 block of Odana Rd farside Huron Hl,43.051493,-89.439394,MMT,CMAD,0,,1,270,1,Odana,3698,Huron
2916,2916,Highland & Observatory (SB),This stop (#2916) is southbound on the 898 block of Highland Ave farside Observatory Dr,43.076794,-89.42919,MMT,UWIS,0,,1,180,1,Highland,898,Observatory
2921,2921,University & Princeton (EB),This stop (#2921) is eastbound on the 1899 block of University Ave farside Princeton Ave,43.073222,-89.417438,MMT,CMAD,0,,1,90,1,University,1899,Princeton
2923,2923,University & N Segoe (EB),This stop (#2923) is eastbound on the 4699 block of University Ave farside Segoe Rd (N),43.075152,-89.45625,MMT,CMAD,0,,1,90,1,University,4699,N Segoe
2925,2925,S Whitney & Science (NB),This stop (#2925) is northbound on the 519 block of Whitney Way (S) farside Science Dr,43.056418,-89.472755,MMT,CMAD,0,,1,0,1,S Whitney,519,Science
2938,2938,University Bay & Picnic Point (WB),This stop (#2938) is westbound on the 1449 block of University Bay Dr adjacent Picnic Point,43.084145,-89.428759,MMT,UWIS,0,,2,270,1,University Bay,1449,Picnic Point
2939,2939,Tokay & U W Health (EB),This stop (#2939) is eastbound on the 5399 block of Tokay Blvd opposite U W Health,43.053473,-89.470482,MMT,CMAD,0,,4,90,1,Tokay,5399,U W Health
2940,2940,Monroe & S Breese (WB),This stop (#2940) is westbound on the 1620 block of Monroe St farside Breese Ter (S),43.066937,-89.414303,MMT,CMAD,0,,1,270,1,Monroe,1620,S Breese
2945,2945,University & Ridge (EB),This stop (#2945) is eastbound on the 2899 block of University Ave farside Ridge St,43.074573,-89.438473,MMT,CMAD,0,,1,90,1,University,2899,Ridge
2949,2949,Regent & S Prospect (EB),This stop (#2949) is eastbound on the 1999 block of Regent St farside Prospect Ave (S),43.067779,-89.420845,MMT,CMAD,0,,1,90,1,Regent,1999,S Prospect
2951,2951,Highland & Regent (NB),This stop (#2951) is northbound on the 1 block of Highland Ave farside Regent St,43.068361,-89.428486,MMT,CMAD,0,,1,0,0,Highland,1,Regent
2959,2959,University Bay & Highland (NB),This stop (#2959) is northbound on the 901 block of University Bay Dr nearside Highland Ave,43.075773,-89.43393,MMT,UWIS,0,,3,0,1,University Bay,901,Highland
2965,2965,Kendall & N Franklin (EB),This stop (#2965) is eastbound on the 2801 block of Kendall Ave nearside Franklin Ave (N),43.071368,-89.436436,MMT,CMAD,0,,3,90,1,Kendall,2801,N Franklin
2972,2972,Tokay & S Midvale (WB),This stop (#2972) is westbound on the 4400 block of Tokay Blvd farside Midvale Blvd (S),43.053747,-89.451649,MMT,CMAD,0,,1,270,1,Tokay,4400,S Midvale
